[
  {
    "id": "00399e17-76ca-418f-a670-e01073ff0267",
    "name": "The Steps",
    "location": {
      "country": "Australia",
      "region": "Sydney, New South Wales",
      "ocean": [
        "Pacific Ocean",
        "Tasman Sea"
      ]
    },
    "coordinates": {
      "lat": "-34.00268801742153",
      "lng": "151.2256336194696"
    },
    "additionalInfo": {}
  },
  {
    "id": "00bdb24d-6dca-4ab6-9700-12d7120c726a",
    "name": "Upolu Cay",
    "location": {
      "country": "Australia",
      "region": "Great Barrier Reef, Queensland",
      "ocean": [
        "Pacific Ocean",
        "Coral Sea"
      ]
    },
    "coordinates": {
      "lat": "-16.694078667842692",
      "lng": "145.91011047363284"
    },
    "additionalInfo": {}
  },
  {
    "id": "01227dc4-be51-46c4-8a57-d251380fdca4",
    "name": "Batt Reef",
    "location": {
      "country": "Australia",
      "region": "Great Barrier Reef, Queensland",
      "ocean": [
        "Pacific Ocean",
        "Coral Sea"
      ]
    },
    "coordinates": {
      "lat": "-16.46176834565066",
      "lng": "145.73055267333987"
    },
    "additionalInfo": {}
  },
  {
    "id": "01685c2a-2023-4e60-b2b6-b960901241c4",
    "name": "Stead Passage",
    "location": {
      "country": "Australia",
      "region": "Great Barrier Reef, Queensland",
      "ocean": [
        "Pacific Ocean",
        "Coral Sea"
      ]
    },
    "coordinates": {
      "lat": "-11.902291077727055",
      "lng": "143.85635375976565"
    },
    "additionalInfo": {}
  },
  {
    "id": "01bd039d-fb69-4642-934b-44a7110c8830",
    "name": "No Name Reef",
    "location": {
      "country": "Australia",
      "region": "Great Barrier Reef, Queensland",
      "ocean": [
        "Pacific Ocean",
        "Coral Sea"
      ]
    },
    "coordinates": {
      "lat": "-14.594215561943921",
      "lng": "145.66703796386722"
    },
    "additionalInfo": {}
  },
  {
    "id": "01d0a956-c0c6-460e-b3e8-cf7d6d825826",
    "name": "Clifton Gardens",
    "location": {
      "country": "Australia",
      "region": "Sydney, New South Wales",
      "ocean": [
        "Pacific Ocean",
        "Tasman Sea"
      ]
    },
    "coordinates": {
      "lat": "-33.839610051468995",
      "lng": "151.25345170497897"
    },
    "additionalInfo": {}
  },
  {
    "id": "02dfdf5a-acaa-4753-913c-57f02b46976f",
    "name": "Reef Walks",
    "location": {
      "country": "Australia",
      "region": "Queensland, Australia",
      "ocean": [
        "Pacific Ocean",
        "Coral Sea"
      ]
    },
    "coordinates": {
      "lat": "-23.4412383905984",
      "lng": "151.91752910614014"
    },
    "additionalInfo": {}
  },
  {
    "id": "04f386d8-fed7-4c0c-82e2-e4748120fb48",
    "name": "Bawley Point",
    "location": {
      "country": "Australia",
      "region": "New South Wales, Australia",
      "ocean": [
        "Pacific Ocean"
      ]
    },
    "coordinates": {
      "lat": "-35.50503306743684",
      "lng": "150.39585479360542"
    },
    "additionalInfo": {}
  },
  {
    "id": "05621691-4c3b-4bba-8175-e7b3e104c950",
    "name": "The Docks",
    "location": {
      "country": "Australia",
      "region": "Beecroft Peninsula, New South Wales",
      "ocean": [
        "Pacific Ocean",
        "Tasman Sea"
      ]
    },
    "coordinates": {
      "lat": "-35.0816201931607",
      "lng": "150.79658031463623"
    },
    "additionalInfo": {}
  },
  {
    "id": "05bd8de5-cc54-456d-874f-b373e008e592",
    "name": "Flare Point",
    "location": {
      "country": "Australia",
      "region": "Great Barrier Reef, Queensland",
      "ocean": [
        "Pacific Ocean",
        "Coral Sea"
      ]
    },
    "coordinates": {
      "lat": "-15.512656586649426",
      "lng": "145.77680468559268"
    },
    "additionalInfo": {}
  },
  {
    "id": "05f60dfc-ffe4-4f28-a2f3-07eefd8ed0e4",
    "name": "Balmoral Baths",
    "location": {
      "country": "Australia",
      "region": "Sydney, New South Wales",
      "ocean": [
        "Pacific Ocean",
        "Tasman Sea"
      ]
    },
    "coordinates": {
      "lat": "-33.82543534556364",
      "lng": "151.25392913818362"
    },
    "additionalInfo": {}
  },
  {
    "id": "065495c0-06ba-42d3-9484-02d39d5a76f5",
    "name": "Blue Fish Point",
    "location": {
      "country": "Australia",
      "region": "Sydney, New South Wales",
      "ocean": [
        "Pacific Ocean",
        "Tasman Sea"
      ]
    },
    "coordinates": {
      "lat": "-33.80550390030413",
      "lng": "151.3072729110718"
    },
    "additionalInfo": {}
  },
  {
    "id": "06669ca3-92a5-4cdd-a79d-56a6e9829b64",
    "name": "Advanced Bommie",
    "location": {
      "country": "Australia",
      "region": "Great Barrier Reef, Queensland",
      "ocean": [
        "Pacific Ocean",
        "Coral Sea"
      ]
    },
    "coordinates": {
      "lat": "-16.05503114145249",
      "lng": "145.8641052246094"
    },
    "additionalInfo": {}
  },
  {
    "id": "068d1c98-ad1f-4ba2-9588-64c73fc53130",
    "name": "Troppo",
    "location": {
      "country": "Australia",
      "region": "Great Barrier Reef, Queensland",
      "ocean": [
        "Pacific Ocean",
        "Coral Sea"
      ]
    },
    "coordinates": {
      "lat": "-16.418549520904335",
      "lng": "145.99855899810794"
    },
    "additionalInfo": {}
  },
  {
    "id": "0743ca7c-968b-46c2-9af0-c0dbf631d95a",
    "name": "Barren&#039;s Hut",
    "location": {
      "country": "Australia",
      "region": "Sydney, New South Wales",
      "ocean": [
        "Pacific Ocean",
        "Tasman Sea"
      ]
    },
    "coordinates": {
      "lat": "-34.088776986675654",
      "lng": "151.18097305297854"
    },
    "additionalInfo": {}
  },
  {
    "id": "07516ad1-b143-4ead-9fe8-b31c6ebb908e",
    "name": "Davies Reef",
    "location": {
      "country": "Australia",
      "region": "Townsville, Queensland",
      "ocean": [
        "Pacific Ocean",
        "Coral Sea"
      ]
    },
    "coordinates": {
      "lat": "-18.824416789322203",
      "lng": "147.62878417968753"
    },
    "additionalInfo": {}
  },
  {
    "id": "07d33287-48ab-45df-b87c-85c4d3b3a467",
    "name": "The Nice Spot",
    "location": {
      "country": "Australia",
      "region": "Melbourne, Victoria",
      "ocean": [
        "Southern Ocean",
        "Bass Strait"
      ]
    },
    "coordinates": {
      "lat": "-38.30286995515003",
      "lng": "144.60376739501956"
    },
    "additionalInfo": {}
  },
  {
    "id": "08631a5f-f759-4264-bf9e-79135ed96408",
    "name": "Latitude Rock",
    "location": {
      "country": "Australia",
      "region": "Forster, New South Wales",
      "ocean": [
        "Pacific Ocean",
        "Tasman Sea"
      ]
    },
    "coordinates": {
      "lat": "-32.20851643891241",
      "lng": "152.56602287292483"
    },
    "additionalInfo": {}
  },
  {
    "id": "0a847884-5c31-47c9-aeb5-b7b54d19ef88",
    "name": "Devils Marbles",
    "location": {
      "country": "Australia",
      "region": "Queensland, Australia",
      "ocean": [
        "Pacific Ocean",
        "Coral Sea"
      ]
    },
    "coordinates": {
      "lat": "-24.11671413123663",
      "lng": "152.70871639251712"
    },
    "additionalInfo": {}
  },
  {
    "id": "0aa062d5-00cd-4936-9e44-7287c87680fa",
    "name": "Anchor Bommie",
    "location": {
      "country": "Australia",
      "region": "Queensland, Australia",
      "ocean": [
        "Pacific Ocean",
        "Coral Sea"
      ]
    },
    "coordinates": {
      "lat": "-24.109428400732657",
      "lng": "152.70867347717288"
    },
    "additionalInfo": {}
  },
  {
    "id": "0ad87be4-5480-44b2-8a45-a3dc850ded67",
    "name": "Junction",
    "location": {
      "country": "Australia",
      "region": "Queensland, Australia",
      "ocean": [
        "Pacific Ocean",
        "Coral Sea"
      ]
    },
    "coordinates": {
      "lat": "-23.435804738884574",
      "lng": "151.90184354782107"
    },
    "additionalInfo": {}
  },
  {
    "id": "0bff4fd1-195f-4dc9-9ce1-4998dd872591",
    "name": "Shark Point",
    "location": {
      "country": "Australia",
      "region": "Sydney, New South Wales",
      "ocean": [
        "Pacific Ocean",
        "Tasman Sea"
      ]
    },
    "coordinates": {
      "lat": "-33.91437487334592",
      "lng": "151.27384185791018"
    },
    "additionalInfo": {}
  },
  {
    "id": "0cad0156-2973-4a6f-95be-2468404bc7e1",
    "name": "Swansea Bridge",
    "location": {
      "country": "Australia",
      "region": "North Avoca, New South Wales",
      "ocean": [
        "Pacific Ocean",
        "Tasman Sea"
      ]
    },
    "coordinates": {
      "lat": "-33.086411148890505",
      "lng": "151.63989901542666"
    },
    "additionalInfo": {}
  },
  {
    "id": "0cd0ad9c-fe12-4b28-a001-3e6c92191aee",
    "name": "Thrisby Engines",
    "location": {
      "country": "Australia",
      "region": "Queensland, Australia",
      "ocean": [
        "Pacific Ocean",
        "Coral Sea"
      ]
    },
    "coordinates": {
      "lat": "-24.108625378184247",
      "lng": "152.72019624710086"
    },
    "additionalInfo": {}
  },
  {
    "id": "0e2b488d-a549-4e44-89a8-458a7e8ced7b",
    "name": "South Point",
    "location": {
      "country": "Australia",
      "region": "Gold Coast, Queensland",
      "ocean": [
        "Pacific Ocean",
        "Tasman Sea"
      ]
    },
    "coordinates": {
      "lat": "-28.053348290488728",
      "lng": "153.4885311126709"
    },
    "additionalInfo": {}
  },
  {
    "id": "0e593dbc-7290-47bf-8cdf-34aff530cb30",
    "name": "Garden Day",
    "location": {
      "country": "Australia",
      "region": "Batemans Bay, New South Wales",
      "ocean": [
        "Pacific Ocean",
        "Tasman Sea"
      ]
    },
    "coordinates": {
      "lat": "-35.78507769368217",
      "lng": "150.23400306701663"
    },
    "additionalInfo": {}
  },
  {
    "id": "0e7a3f09-d0a9-488d-b6ec-182e5cb5159f",
    "name": "Shark City",
    "location": {
      "country": "Australia",
      "region": "Great Barrier Reef, Queensland",
      "ocean": [
        "Pacific Ocean",
        "Coral Sea"
      ]
    },
    "coordinates": {
      "lat": "-11.688548747070879",
      "lng": "144.04724121093753"
    },
    "additionalInfo": {}
  },
  {
    "id": "0f915879-e3b0-4df8-8640-098421a36516",
    "name": "The Leap",
    "location": {
      "country": "Australia",
      "region": "Sydney, New South Wales",
      "ocean": [
        "Pacific Ocean",
        "Tasman Sea"
      ]
    },
    "coordinates": {
      "lat": "-34.00507166353613",
      "lng": "151.228609085083"
    },
    "additionalInfo": {}
  },
  {
    "id": "0fa0e513-e533-4e96-bed7-76a743432ce7",
    "name": "Lady Bowen",
    "location": {
      "country": "Australia",
      "region": "Townsville, Queensland",
      "ocean": [
        "Pacific Ocean",
        "Coral Sea"
      ]
    },
    "coordinates": {
      "lat": "-18.12758091721901",
      "lng": "146.41479492187503"
    },
    "additionalInfo": {}
  },
  {
    "id": "10259aec-524e-4c05-ad8b-52d9192e88ab",
    "name": "First Point",
    "location": {
      "country": "Australia",
      "region": "Queensland, Australia",
      "ocean": [
        "Pacific Ocean",
        "Coral Sea"
      ]
    },
    "coordinates": {
      "lat": "-23.432615317534292",
      "lng": "151.94703340530398"
    },
    "additionalInfo": {}
  },
  {
    "id": "103c9c26-8f5b-4432-a9b9-1f188711d883",
    "name": "Norman Reef",
    "location": {
      "country": "Australia",
      "region": "Great Barrier Reef, Queensland",
      "ocean": [
        "Pacific Ocean",
        "Coral Sea"
      ]
    },
    "coordinates": {
      "lat": "-16.426123800419113",
      "lng": "145.99843025207522"
    },
    "additionalInfo": {}
  },
  {
    "id": "11853b74-cb33-4490-a4bb-7e388ea8dbfc",
    "name": "Hardy Reef ",
    "location": {
      "country": "Australia",
      "region": "Great Barrier Reef, Queensland",
      "ocean": [
        "Oceania",
        "Australia",
        "Queensland",
        "Great Barrier Reef"
      ]
    },
    "coordinates": {
      "lat": "-14.253110102706941",
      "lng": "146.69494628906253"
    },
    "additionalInfo": {}
  },
  {
    "id": "12085157-79a7-4643-9dc6-6a47e4fa1d07",
    "name": "The Woodpile",
    "location": {
      "country": "Australia",
      "region": "Hook Island, Australia",
      "ocean": [
        "Pacific Ocean",
        "Coral Sea"
      ]
    },
    "coordinates": {
      "lat": "-20.08817825791709",
      "lng": "148.9589881896973"
    },
    "additionalInfo": {}
  },
  {
    "id": "129cdba8-45f4-48bb-8f4a-0480ba1b1c19",
    "name": "Shag Rock",
    "location": {
      "country": "Australia",
      "region": "North Stradbroke Island, Queensland",
      "ocean": [
        "Oceania",
        "Australia",
        "Queensland",
        "North Stradbroke Island"
      ]
    },
    "coordinates": {
      "lat": "-27.413947723632315",
      "lng": "153.52591037750247"
    },
    "additionalInfo": {}
  },
  {
    "id": "12f1d8e8-5504-40a4-b51b-6b76c6e098ce",
    "name": "Gary&#039;s Lagoon",
    "location": {
      "country": "Australia",
      "region": "Townsville, Queensland",
      "ocean": [
        "Pacific Ocean",
        "Coral Sea"
      ]
    },
    "coordinates": {
      "lat": "-19.817744115667306",
      "lng": "149.05769348144534"
    },
    "additionalInfo": {}
  },
  {
    "id": "1351abfa-ce79-4fd2-8e3c-e2c3bd392e6d",
    "name": "Admiralty",
    "location": {
      "country": "Australia",
      "region": "Great Barrier Reef, Queensland",
      "ocean": [
        "Pacific Ocean",
        "Coral Sea"
      ]
    },
    "coordinates": {
      "lat": "-13.887422096466159",
      "lng": "146.55623316764834"
    },
    "additionalInfo": {}
  },
  {
    "id": "137238fe-69e4-447a-81e4-becca42d6b84",
    "name": "Cown City",
    "location": {
      "country": "Australia",
      "region": "Gold Coast, Queensland",
      "ocean": [
        "Pacific Ocean",
        "Tasman Sea"
      ]
    },
    "coordinates": {
      "lat": "-27.981971472829628",
      "lng": "153.52758407592776"
    },
    "additionalInfo": {}
  },
  {
    "id": "154fd275-df05-40d7-a02e-bc5f30404695",
    "name": "St Crispin Reef",
    "location": {
      "country": "Australia",
      "region": "Great Barrier Reef, Queensland",
      "ocean": [
        "Pacific Ocean",
        "Coral Sea"
      ]
    },
    "coordinates": {
      "lat": "-16.106844330867535",
      "lng": "145.84659576416018"
    },
    "additionalInfo": {}
  },
  {
    "id": "155d4f36-58c2-4a11-9e87-122a41e9f8d7",
    "name": "Manly Bombie",
    "location": {
      "country": "Australia",
      "region": "Sydney, New South Wales",
      "ocean": [
        "Pacific Ocean",
        "Tasman Sea"
      ]
    },
    "coordinates": {
      "lat": "-33.793985044939305",
      "lng": "151.2944841384888"
    },
    "additionalInfo": {}
  },
  {
    "id": "1594542e-14ae-40ed-8b74-94ba2cf72d22",
    "name": "Ras Korali",
    "location": {
      "country": "Australia",
      "region": "South Coast, New South Wales",
      "ocean": [
        "Indian Ocean",
        "Arabian Sea",
        "Gulf Of Tadjoura",
        "South Coast"
      ]
    },
    "coordinates": {
      "lat": "11.603139953216905",
      "lng": "42.84255981445313"
    },
    "additionalInfo": {}
  },
  {
    "id": "16ca02a6-bf42-4203-ae5a-02fdd998ec88",
    "name": "Trench To Jetty",
    "location": {
      "country": "Australia",
      "region": "New South Wales, Australia",
      "ocean": [
        "Pacific Ocean",
        "Tasman Sea"
      ]
    },
    "coordinates": {
      "lat": "-33.16026243085883",
      "lng": "151.63548946380615"
    },
    "additionalInfo": {}
  },
  {
    "id": "173fcd8a-5874-4b0d-ad69-9cdd3a6781d7",
    "name": "Wild West",
    "location": {
      "country": "Australia",
      "region": "Great Barrier Reef, Queensland",
      "ocean": [
        "Pacific Ocean",
        "Coral Sea"
      ]
    },
    "coordinates": {
      "lat": "-16.245701967849158",
      "lng": "145.86157321929934"
    },
    "additionalInfo": {}
  },
  {
    "id": "17e6a120-ec0d-43a3-a70c-bf77cf2ebefd",
    "name": "Watson&#039;s Bay",
    "location": {
      "country": "Australia",
      "region": "Great Barrier Reef, Queensland",
      "ocean": [
        "Pacific Ocean",
        "Coral Sea"
      ]
    },
    "coordinates": {
      "lat": "-14.654634371025757",
      "lng": "145.44310569763186"
    },
    "additionalInfo": {}
  },
  {
    "id": "183520c0-4423-4b04-9b24-75c0e3fe3fab",
    "name": "Centurion",
    "location": {
      "country": "Australia",
      "region": "Sydney, New South Wales",
      "ocean": [
        "Pacific Ocean",
        "Tasman Sea"
      ]
    },
    "coordinates": {
      "lat": "-33.816985550382334",
      "lng": "151.2825965881348"
    },
    "additionalInfo": {}
  },
  {
    "id": "194e7b92-5a90-4860-a379-f3e3b3f6d194",
    "name": "Lost Mooring",
    "location": {
      "country": "Australia",
      "region": "Queensland, Australia",
      "ocean": [
        "Pacific Ocean",
        "Coral Sea"
      ]
    },
    "coordinates": {
      "lat": "-23.45324675573847",
      "lng": "151.91978216171267"
    },
    "additionalInfo": {}
  },
  {
    "id": "1a6ebce3-c7cd-4051-a09a-d02ba611f20a",
    "name": "Skeleton Bay",
    "location": {
      "country": "Australia",
      "region": "Tasmania, Australia",
      "ocean": [
        "Pacific Ocean",
        "Tasman Sea"
      ]
    },
    "coordinates": {
      "lat": "-41.240641902694755",
      "lng": "148.3580017089844"
    },
    "additionalInfo": {}
  },
  {
    "id": "1a7d048d-05b0-49db-8fec-699d677a48c3",
    "name": "Inscription Point",
    "location": {
      "country": "Australia",
      "region": "Sydney, New South Wales",
      "ocean": [
        "Pacific Ocean",
        "Tasman Sea"
      ]
    },
    "coordinates": {
      "lat": "-34.001887524243784",
      "lng": "151.22470378875735"
    },
    "additionalInfo": {}
  },
  {
    "id": "1a7df0b3-6da4-4c5c-98d6-6c61a1556fc5",
    "name": "Hedley Reef",
    "location": {
      "country": "Australia",
      "region": "Great Barrier Reef, Queensland",
      "ocean": [
        "Pacific Ocean",
        "Coral Sea"
      ]
    },
    "coordinates": {
      "lat": "-17.244432652792835",
      "lng": "146.5013122558594"
    },
    "additionalInfo": {}
  },
  {
    "id": "1b73426c-5f17-4bbf-ae22-dba444a677f4",
    "name": "Tenements 1",
    "location": {
      "country": "Australia",
      "region": "Queensland, Australia",
      "ocean": [
        "Pacific Ocean",
        "Coral Sea"
      ]
    },
    "coordinates": {
      "lat": "-23.4374191080101",
      "lng": "151.8996334075928"
    },
    "additionalInfo": {}
  },
  {
    "id": "1b997515-911b-4b37-bc2e-10d2774432f9",
    "name": "Boat Rock",
    "location": {
      "country": "Australia",
      "region": "North Stradbroke Island, Queensland",
      "ocean": [
        "Pacific Ocean",
        "Coral Sea"
      ]
    },
    "coordinates": {
      "lat": "-27.390439933408267",
      "lng": "153.54766845703128"
    },
    "additionalInfo": {}
  },
  {
    "id": "1c25ba5f-6556-4d28-8b6a-3f8aeb9e0791",
    "name": "Waterfall",
    "location": {
      "country": "Australia",
      "region": "Sydney, New South Wales",
      "ocean": [
        "Pacific Ocean",
        "Tasman Sea"
      ]
    },
    "coordinates": {
      "lat": "-33.82204839711985",
      "lng": "151.29375457763675"
    },
    "additionalInfo": {}
  },
  {
    "id": "1c50be6f-8127-4da1-be47-ab070dcc4e2a",
    "name": "Coral Cascades",
    "location": {
      "country": "Australia",
      "region": "Queensland, Australia",
      "ocean": [
        "Pacific Ocean",
        "Coral Sea"
      ]
    },
    "coordinates": {
      "lat": "-23.439151579769884",
      "lng": "151.89971923828128"
    },
    "additionalInfo": {}
  },
  {
    "id": "1c842748-db61-47b3-a1cf-9a560965a43d",
    "name": "Scattered Bommies",
    "location": {
      "country": "Australia",
      "region": "Queensland, Australia",
      "ocean": [
        "Pacific Ocean",
        "Coral Sea"
      ]
    },
    "coordinates": {
      "lat": "-24.111661168663584",
      "lng": "152.7071285247803"
    },
    "additionalInfo": {}
  },
  {
    "id": "1d186447-bc43-45ab-a1d6-d60659e08edd",
    "name": "Briggs Reef",
    "location": {
      "country": "Australia",
      "region": "Great Barrier Reef, Queensland",
      "ocean": [
        "Pacific Ocean",
        "Coral Sea"
      ]
    },
    "coordinates": {
      "lat": "-16.92282231752717",
      "lng": "146.34407043457034"
    },
    "additionalInfo": {}
  },
  {
    "id": "1e335b64-623b-45f7-9e20-03e3c2eaa6bd",
    "name": "Point Franklin Reef",
    "location": {
      "country": "Australia",
      "region": "Melbourne, Victoria",
      "ocean": [
        "Southern Ocean",
        "Bass Strait"
      ]
    },
    "coordinates": {
      "lat": "-38.31499288364285",
      "lng": "144.7193813323975"
    },
    "additionalInfo": {}
  },
  {
    "id": "1e3a41d4-ee39-4132-9176-66fee751307c",
    "name": "Hillarys North Wall",
    "location": {
      "country": "Australia",
      "region": "Perth, Western Australia",
      "ocean": [
        "Indian Ocean"
      ]
    },
    "coordinates": {
      "lat": "-31.820215302895587",
      "lng": "115.7344436645508"
    },
    "additionalInfo": {}
  },
  {
    "id": "1f0df3bb-715a-498f-b4e9-7688ff5c502c",
    "name": "Bowl Reef",
    "location": {
      "country": "Australia",
      "region": "Townsville, Queensland",
      "ocean": [
        "Pacific Ocean",
        "Coral Sea"
      ]
    },
    "coordinates": {
      "lat": "-18.502400928760636",
      "lng": "147.53608703613284"
    },
    "additionalInfo": {}
  },
  {
    "id": "1fb070a9-e47d-49f8-927a-29c706c5830f",
    "name": "Point Peron",
    "location": {
      "country": "Australia",
      "region": "Perth, Western Australia",
      "ocean": [
        "Indian Ocean"
      ]
    },
    "coordinates": {
      "lat": "-32.27000692590065",
      "lng": "115.68157196044923"
    },
    "additionalInfo": {}
  },
  {
    "id": "1fb20798-70a4-4232-88d1-0f52429a5cf9",
    "name": "Rainbow Reef",
    "location": {
      "country": "Australia",
      "region": "Great Barrier Reef, Queensland",
      "ocean": [
        "Pacific Ocean",
        "Coral Sea"
      ]
    },
    "coordinates": {
      "lat": "-12.314510891208807",
      "lng": "143.86184692382815"
    },
    "additionalInfo": {}
  },
  {
    "id": "1ff1197b-a260-4678-bcb5-1d2fc929527b",
    "name": "The Fishbowl",
    "location": {
      "country": "Australia",
      "region": "Great Barrier Reef, Queensland",
      "ocean": [
        "Pacific Ocean",
        "Coral Sea"
      ]
    },
    "coordinates": {
      "lat": "-16.513453639815346",
      "lng": "146.0022068023682"
    },
    "additionalInfo": {}
  },
  {
    "id": "20e7405a-abc0-4804-b682-871a41d640dd",
    "name": "Magic Point",
    "location": {
      "country": "Australia",
      "region": "Sydney, New South Wales",
      "ocean": [
        "Pacific Ocean",
        "Tasman Sea"
      ]
    },
    "coordinates": {
      "lat": "-33.95724364823708",
      "lng": "151.26573085784915"
    },
    "additionalInfo": {}
  },
  {
    "id": "21977863-ea9f-4f4d-aa55-2c33e2cd334d",
    "name": "The Colours",
    "location": {
      "country": "Australia",
      "region": "Sydney, New South Wales",
      "ocean": [
        "Pacific Ocean",
        "Tasman Sea"
      ]
    },
    "coordinates": {
      "lat": "-33.847571987744566",
      "lng": "151.29263877868655"
    },
    "additionalInfo": {}
  },
  {
    "id": "2264443e-b751-4ced-ac25-3bc92d6324fe",
    "name": "Hobart",
    "location": {
      "country": "Australia",
      "region": "Tasmania, Australia",
      "ocean": [
        "Pacific Ocean",
        "Tasman Sea"
      ]
    },
    "coordinates": {
      "lat": "-43.07390374227269",
      "lng": "147.53265380859378"
    },
    "additionalInfo": {}
  },
  {
    "id": "227c1a11-aff9-4795-9bed-e215e13eb437",
    "name": "Caves",
    "location": {
      "country": "Australia",
      "region": "Great Barrier Reef, Queensland",
      "ocean": [
        "Pacific Ocean",
        "Coral Sea"
      ]
    },
    "coordinates": {
      "lat": "-16.419084669906162",
      "lng": "145.99800109863284"
    },
    "additionalInfo": {}
  },
  {
    "id": "22de6103-565a-4b5e-aee8-7b91064027e0",
    "name": "Sv Moltke",
    "location": {
      "country": "Australia",
      "region": "Townsville, Queensland",
      "ocean": [
        "Pacific Ocean",
        "Coral Sea"
      ]
    },
    "coordinates": {
      "lat": "-19.175004207196388",
      "lng": "146.85905456542972"
    },
    "additionalInfo": {}
  },
  {
    "id": "25eb186c-d08a-44b2-88f5-05676f10ba49",
    "name": "Jetty Coffs Harbour",
    "location": {
      "country": "Australia",
      "region": "New South Wales, Australia",
      "ocean": [
        "Pacific Ocean",
        "Tasman Sea"
      ]
    },
    "coordinates": {
      "lat": "-30.304641456580715",
      "lng": "153.1428372859955"
    },
    "additionalInfo": {}
  },
  {
    "id": "2747041c-c686-498f-be12-68b00e8513ce",
    "name": "Halifax Park",
    "location": {
      "country": "Australia",
      "region": "Nelson Bay, New South Wales",
      "ocean": [
        "Pacific Ocean",
        "Tasman Sea"
      ]
    },
    "coordinates": {
      "lat": "-32.709265992242045",
      "lng": "152.1605479717255"
    },
    "additionalInfo": {}
  },
  {
    "id": "27bf199f-0292-433c-922d-ca44e8db3f4e",
    "name": "Three Sisters",
    "location": {
      "country": "Australia",
      "region": "Great Barrier Reef, Queensland",
      "ocean": [
        "Pacific Ocean",
        "Coral Sea"
      ]
    },
    "coordinates": {
      "lat": "-16.798953745210355",
      "lng": "146.25686645507815"
    },
    "additionalInfo": {}
  },
  {
    "id": "27c410bb-b252-4407-9d90-b54810f1798a",
    "name": "Saxon Reef",
    "location": {
      "country": "Australia",
      "region": "Great Barrier Reef, Queensland",
      "ocean": [
        "Pacific Ocean",
        "Coral Sea"
      ]
    },
    "coordinates": {
      "lat": "-16.464402324745087",
      "lng": "145.9846115112305"
    },
    "additionalInfo": {}
  },
  {
    "id": "2879afca-07f4-40ec-bb66-c966b3b4c555",
    "name": "Sand Pipe",
    "location": {
      "country": "Australia",
      "region": "Gold Coast, Queensland",
      "ocean": [
        "Pacific Ocean",
        "Tasman Sea"
      ]
    },
    "coordinates": {
      "lat": "-27.73398401122859",
      "lng": "153.4508514404297"
    },
    "additionalInfo": {}
  },
  {
    "id": "2903fd1d-5de1-4a83-a8ff-a2748a91db78",
    "name": "Tenements 1",
    "location": {
      "country": "Australia",
      "region": "Queensland, Australia",
      "ocean": [
        "Pacific Ocean",
        "Coral Sea"
      ]
    },
    "coordinates": {
      "lat": "-23.43296970148453",
      "lng": "151.93265676498416"
    },
    "additionalInfo": {}
  },
  {
    "id": "2a0de902-a2ca-4786-922e-a6209fa8541d",
    "name": "Foggy Reef",
    "location": {
      "country": "Australia",
      "region": "Melbourne, Victoria",
      "ocean": [
        "Southern Ocean",
        "Bass Strait"
      ]
    },
    "coordinates": {
      "lat": "-38.29182285617621",
      "lng": "144.6248817443848"
    },
    "additionalInfo": {}
  },
  {
    "id": "2b30cd0c-379a-4546-be98-c11065c3937a",
    "name": "South Reef",
    "location": {
      "country": "Australia",
      "region": "Sydney, New South Wales",
      "ocean": [
        "Pacific Ocean",
        "Tasman Sea"
      ]
    },
    "coordinates": {
      "lat": "-33.83456161245217",
      "lng": "151.27796173095706"
    },
    "additionalInfo": {}
  },
  {
    "id": "2b40c638-4155-4573-8802-7fbd1c4d79be",
    "name": "Maori Wrusse Bommie",
    "location": {
      "country": "Australia",
      "region": "Queensland, Australia",
      "ocean": [
        "Pacific Ocean",
        "Coral Sea"
      ]
    },
    "coordinates": {
      "lat": "-24.106999731753515",
      "lng": "152.71189212799075"
    },
    "additionalInfo": {}
  },
  {
    "id": "2b4e57d1-05b7-45e4-9326-270711f05364",
    "name": "Coolooli Wreck",
    "location": {
      "country": "Australia",
      "region": "Sydney, New South Wales",
      "ocean": [
        "Pacific Ocean",
        "Tasman Sea"
      ]
    },
    "coordinates": {
      "lat": "-33.72084162952098",
      "lng": "151.32456779479983"
    },
    "additionalInfo": {}
  },
  {
    "id": "2ca18cc8-ecd2-4051-9159-41c6ba7ab150",
    "name": "The Basin",
    "location": {
      "country": "Australia",
      "region": "Rottnest Island, Western Australia",
      "ocean": [
        "Indian Ocean"
      ]
    },
    "coordinates": {
      "lat": "-31.983617898488095",
      "lng": "115.53634643554689"
    },
    "additionalInfo": {}
  },
  {
    "id": "2d4ce6fb-bba7-4bbc-a522-904d57809c06",
    "name": "Fortescue Bay Kelp Forest",
    "location": {
      "country": "Australia",
      "region": "Tasmania, Australia",
      "ocean": [
        "Pacific Ocean",
        "Tasman Sea"
      ]
    },
    "coordinates": {
      "lat": "-43.131056762191534",
      "lng": "147.9899597167969"
    },
    "additionalInfo": {}
  },
  {
    "id": "2dd48f97-6bc7-4f64-99c9-6829a8b23f1c",
    "name": "Kelso Reef",
    "location": {
      "country": "Australia",
      "region": "Townsville, Queensland",
      "ocean": [
        "Pacific Ocean",
        "Coral Sea"
      ]
    },
    "coordinates": {
      "lat": "-18.43987883590277",
      "lng": "146.9847106933594"
    },
    "additionalInfo": {}
  },
  {
    "id": "2e48cc50-0572-45d5-96e7-e1a06b918fc7",
    "name": "Manly Cove",
    "location": {
      "country": "Australia",
      "region": "Sydney, New South Wales",
      "ocean": [
        "Pacific Ocean",
        "Tasman Sea"
      ]
    },
    "coordinates": {
      "lat": "-33.79965551113043",
      "lng": "151.2821674346924"
    },
    "additionalInfo": {}
  },
  {
    "id": "2eb4dd3c-efb1-40ee-adec-e9c3a79062b4",
    "name": "Mackay Reef",
    "location": {
      "country": "Australia",
      "region": "Great Barrier Reef, Queensland",
      "ocean": [
        "Pacific Ocean",
        "Coral Sea"
      ]
    },
    "coordinates": {
      "lat": "-15.127147445766562",
      "lng": "145.5458450317383"
    },
    "additionalInfo": {}
  },
  {
    "id": "2f295c59-cd8e-407e-9d40-ed9ee79f0754",
    "name": "Fish Rock",
    "location": {
      "country": "Australia",
      "region": "New South Wales, Australia",
      "ocean": [
        "Pacific Ocean",
        "Tasman Sea"
      ]
    },
    "coordinates": {
      "lat": "-30.939188152488658",
      "lng": "153.1000399589539"
    },
    "additionalInfo": {}
  },
  {
    "id": "3066b908-7c49-4c62-87ed-a49eee36b4f3",
    "name": "Arlington Reef",
    "location": {
      "country": "Australia",
      "region": "Great Barrier Reef, Queensland",
      "ocean": [
        "Pacific Ocean",
        "Coral Sea"
      ]
    },
    "coordinates": {
      "lat": "-16.637507681577905",
      "lng": "146.10923767089847"
    },
    "additionalInfo": {}
  },
  {
    "id": "31964ecb-b82e-48f8-be22-a32ca839cba7",
    "name": "Ss Bonnie Dundee",
    "location": {
      "country": "Australia",
      "region": "North Avoca, New South Wales",
      "ocean": [
        "Pacific Ocean",
        "Tasman Sea"
      ]
    },
    "coordinates": {
      "lat": "-33.087370733934705",
      "lng": "151.75998687744143"
    },
    "additionalInfo": {}
  },
  {
    "id": "31f7f60f-9893-4537-a5e9-50413b4ce22a",
    "name": "Drum And Drumsticks ",
    "location": {
      "country": "Australia",
      "region": "Beecroft Peninsula, New South Wales",
      "ocean": [
        "Pacific Ocean",
        "Tasman Sea"
      ]
    },
    "coordinates": {
      "lat": "-35.046369252385",
      "lng": "150.8404612541199"
    },
    "additionalInfo": {}
  },
  {
    "id": "32f43be7-427d-48e7-9eea-086cf7e89319",
    "name": "Woniora",
    "location": {
      "country": "Australia",
      "region": "Sydney, New South Wales",
      "ocean": [
        "Pacific Ocean",
        "Tasman Sea"
      ]
    },
    "coordinates": {
      "lat": "-34.014107565123375",
      "lng": "151.25049591064456"
    },
    "additionalInfo": {}
  },
  {
    "id": "335843a2-3871-4390-8d9e-fcd2f73ccaf9",
    "name": "The Temple",
    "location": {
      "country": "Australia",
      "region": "Moon Island, New South Wales",
      "ocean": [
        "Pacific Ocean",
        "Tasman Sea"
      ]
    },
    "coordinates": {
      "lat": "-33.08906065684326",
      "lng": "151.67647361755374"
    },
    "additionalInfo": {}
  },
  {
    "id": "33867bef-142c-4e25-b7e9-90de4f531d0d",
    "name": "G Spot",
    "location": {
      "country": "Australia",
      "region": "Great Barrier Reef, Queensland",
      "ocean": [
        "Pacific Ocean",
        "Coral Sea"
      ]
    },
    "coordinates": {
      "lat": "-16.123830670912813",
      "lng": "145.7853984832764"
    },
    "additionalInfo": {}
  },
  {
    "id": "33f523ed-d772-4870-b3f3-f96935c440bc",
    "name": "Cathie Wall",
    "location": {
      "country": "Australia",
      "region": "Port Macquarie, New South Wales",
      "ocean": [
        "Pacific Ocean",
        "Tasman Sea"
      ]
    },
    "coordinates": {
      "lat": "-31.581460226685415",
      "lng": "152.85552978515625"
    },
    "additionalInfo": {}
  },
  {
    "id": "34533ea0-92da-4655-8d18-a2a24f4b2a3d",
    "name": "Pandora",
    "location": {
      "country": "Australia",
      "region": "Great Barrier Reef, Queensland",
      "ocean": [
        "Pacific Ocean",
        "Coral Sea"
      ]
    },
    "coordinates": {
      "lat": "-11.369646122443688",
      "lng": "143.99230957031253"
    },
    "additionalInfo": {}
  },
  {
    "id": "34c25d90-3bb4-4044-b749-c6f0c65e7a28",
    "name": "Government Wharf",
    "location": {
      "country": "Australia",
      "region": "Shark Island, New South Wales",
      "ocean": [
        "Pacific Ocean",
        "Tasman Sea"
      ]
    },
    "coordinates": {
      "lat": "-32.74077540569287",
      "lng": "152.19538450241092"
    },
    "additionalInfo": {}
  },
  {
    "id": "34d5d6e9-5bca-4bb8-8cfe-f66ba4ab786c",
    "name": "Nancy Cove",
    "location": {
      "country": "Australia",
      "region": "Rottnest Island, Western Australia",
      "ocean": [
        "Indian Ocean"
      ]
    },
    "coordinates": {
      "lat": "-32.02088472086091",
      "lng": "115.49343109130861"
    },
    "additionalInfo": {}
  },
  {
    "id": "350e5757-0688-4a9a-9ad8-5022bc9bef0c",
    "name": "Around The Bend",
    "location": {
      "country": "Australia",
      "region": "Great Barrier Reef, Queensland",
      "ocean": [
        "Pacific Ocean",
        "Coral Sea"
      ]
    },
    "coordinates": {
      "lat": "-13.83974672041704",
      "lng": "146.53839111328128"
    },
    "additionalInfo": {}
  },
  {
    "id": "3536ad67-2ce3-4c21-8635-0c18efac6a5b",
    "name": "The Supermarket",
    "location": {
      "country": "Australia",
      "region": "Melbourne, Victoria",
      "ocean": [
        "Southern Ocean",
        "Bass Strait"
      ]
    },
    "coordinates": {
      "lat": "-38.29478687709448",
      "lng": "144.55844879150393"
    },
    "additionalInfo": {}
  },
  {
    "id": "372079b1-dca0-456c-a855-8191e80a6922",
    "name": "North Rock",
    "location": {
      "country": "Australia",
      "region": "Broughton Island, New South Wales",
      "ocean": [
        "Pacific Ocean",
        "Tasman Sea"
      ]
    },
    "coordinates": {
      "lat": "-32.59893608737376",
      "lng": "152.32342243194583"
    },
    "additionalInfo": {}
  },
  {
    "id": "372edeff-0129-4bf7-930d-f00ccb15f4bb",
    "name": "Spider Ledge",
    "location": {
      "country": "Australia",
      "region": "Queensland, Australia",
      "ocean": [
        "Pacific Ocean",
        "Coral Sea"
      ]
    },
    "coordinates": {
      "lat": "-24.10506068070679",
      "lng": "152.71384477615356"
    },
    "additionalInfo": {}
  },
  {
    "id": "37affd3e-290f-4eae-8da7-cffc37cb0ec8",
    "name": "Halifax Cliffs",
    "location": {
      "country": "Australia",
      "region": "Shoal Bay, New South Wales",
      "ocean": [
        "Pacific Ocean",
        "Tasman Sea"
      ]
    },
    "coordinates": {
      "lat": "-32.71487188971292",
      "lng": "152.1907711029053"
    },
    "additionalInfo": {}
  },
  {
    "id": "387b472d-c992-4fe8-88bf-ee362dbc8794",
    "name": "Mackay Reef",
    "location": {
      "country": "Australia",
      "region": "Great Barrier Reef, Queensland",
      "ocean": [
        "Pacific Ocean",
        "Coral Sea"
      ]
    },
    "coordinates": {
      "lat": "-16.057691200175178",
      "lng": "145.65227508544925"
    },
    "additionalInfo": {}
  },
  {
    "id": "396ec6a2-8dc1-4a6d-ae7a-d990dc1300cc",
    "name": "Steve&#039;s Bomme",
    "location": {
      "country": "Australia",
      "region": "Great Barrier Reef, Queensland",
      "ocean": [
        "Pacific Ocean",
        "Coral Sea"
      ]
    },
    "coordinates": {
      "lat": "-15.501698016322313",
      "lng": "145.7881021499634"
    },
    "additionalInfo": {}
  },
  {
    "id": "3a864c0b-e70b-47cb-bc26-c56ed0a61ea5",
    "name": "Tobruk Wreck",
    "location": {
      "country": "Australia",
      "region": "Townsville, Queensland",
      "ocean": [
        "Pacific Ocean",
        "Coral Sea"
      ]
    },
    "coordinates": {
      "lat": "-19.335465365176492",
      "lng": "148.35937500000003"
    },
    "additionalInfo": {}
  },
  {
    "id": "3ab57a0e-7646-4166-a795-07c8ff59c787",
    "name": "Gorgonia Hole",
    "location": {
      "country": "Australia",
      "region": "Queensland, Australia",
      "ocean": [
        "Pacific Ocean",
        "Coral Sea"
      ]
    },
    "coordinates": {
      "lat": "-23.434859733173965",
      "lng": "151.90695047378543"
    },
    "additionalInfo": {}
  },
  {
    "id": "3ae9d297-ce39-47ab-a8ec-daa85746c055",
    "name": "Blizzard Ridge",
    "location": {
      "country": "Australia",
      "region": "Western Australia, Australia",
      "ocean": [
        "Pacific Ocean",
        "Exmouth Gulf"
      ]
    },
    "coordinates": {
      "lat": "-21.80540827417748",
      "lng": "114.09095764160158"
    },
    "additionalInfo": {}
  },
  {
    "id": "3bd4dca6-98ac-4365-89ea-33cb7b34d110",
    "name": "Coral Bay",
    "location": {
      "country": "Australia",
      "region": "Western Australia, Australia",
      "ocean": [
        "Pacific Ocean",
        "Exmouth Gulf"
      ]
    },
    "coordinates": {
      "lat": "-23.139787779168376",
      "lng": "113.7532138824463"
    },
    "additionalInfo": {}
  },
  {
    "id": "3bebb5e0-59d1-41bc-81ca-9a801b8b7025",
    "name": "Lighthouse Bommie",
    "location": {
      "country": "Australia",
      "region": "Great Barrier Reef, Queensland",
      "ocean": [
        "Pacific Ocean",
        "Coral Sea"
      ]
    },
    "coordinates": {
      "lat": "-14.879262207262995",
      "lng": "145.682487487793"
    },
    "additionalInfo": {}
  },
  {
    "id": "3bec7281-31c3-48a8-a900-08fb19651f3d",
    "name": "Cottesloe Reef",
    "location": {
      "country": "Australia",
      "region": "Perth, Western Australia",
      "ocean": [
        "Indian Ocean"
      ]
    },
    "coordinates": {
      "lat": "-31.98420030906876",
      "lng": "115.74783325195314"
    },
    "additionalInfo": {}
  },
  {
    "id": "3c6938ff-cbfc-4c72-8cef-564dcbce92d1",
    "name": "Yabbies",
    "location": {
      "country": "Australia",
      "region": "Port Macquarie, New South Wales",
      "ocean": [
        "Pacific Ocean",
        "Tasman Sea"
      ]
    },
    "coordinates": {
      "lat": "-31.513288547069767",
      "lng": "152.9221343994141"
    },
    "additionalInfo": {}
  },
  {
    "id": "3cf4fd6a-8abe-4a0f-b49f-8d2456e7dd2e",
    "name": "The Tribars",
    "location": {
      "country": "Australia",
      "region": "Sydney, New South Wales",
      "ocean": [
        "Pacific Ocean",
        "Tasman Sea"
      ]
    },
    "coordinates": {
      "lat": "-33.985573609022126",
      "lng": "151.21307373046878"
    },
    "additionalInfo": {}
  },
  {
    "id": "3d32d5db-da91-4ae3-8b62-47151329a2fa",
    "name": "The Apartments",
    "location": {
      "country": "Australia",
      "region": "Sydney, New South Wales",
      "ocean": [
        "Pacific Ocean",
        "Tasman Sea"
      ]
    },
    "coordinates": {
      "lat": "-33.73768798475928",
      "lng": "151.32216453552246"
    },
    "additionalInfo": {}
  },
  {
    "id": "3d353138-4bb7-4558-9f43-b0e99492f142",
    "name": "Red Sands",
    "location": {
      "country": "Australia",
      "region": "South Coast, New South Wales",
      "ocean": [
        "Indian Ocean",
        "Arabian Sea",
        "Gulf Of Tadjoura",
        "South Coast"
      ]
    },
    "coordinates": {
      "lat": "11.602803646325675",
      "lng": "42.957572937011726"
    },
    "additionalInfo": {}
  },
  {
    "id": "3de67abd-8bf6-4a61-bd13-71a9b383529d",
    "name": "Bellubera Wreck",
    "location": {
      "country": "Australia",
      "region": "Sydney, New South Wales",
      "ocean": [
        "Pacific Ocean",
        "Tasman Sea"
      ]
    },
    "coordinates": {
      "lat": "-33.71170324016298",
      "lng": "151.32903099060061"
    },
    "additionalInfo": {}
  },
  {
    "id": "3df83fae-9c02-467f-8df3-ba68176a1373",
    "name": "The Maze",
    "location": {
      "country": "Australia",
      "region": "Batemans Bay, New South Wales",
      "ocean": [
        "Pacific Ocean",
        "Tasman Sea"
      ]
    },
    "coordinates": {
      "lat": "-35.77858468840278",
      "lng": "150.2514481544495"
    },
    "additionalInfo": {}
  },
  {
    "id": "3e2029d0-fd2a-4afc-b7c2-74830ceae21f",
    "name": "Harry&#039;s Bommie",
    "location": {
      "country": "Australia",
      "region": "Queensland, Australia",
      "ocean": [
        "Pacific Ocean",
        "Coral Sea"
      ]
    },
    "coordinates": {
      "lat": "-23.46159291064587",
      "lng": "151.92892313003543"
    },
    "additionalInfo": {}
  },
  {
    "id": "3ea7d392-3582-4b31-9286-d95939cc3c91",
    "name": "King Island",
    "location": {
      "country": "Australia",
      "region": "King Island, Tasmania",
      "ocean": [
        "Southern Ocean",
        "Bass Strait"
      ]
    },
    "coordinates": {
      "lat": "-39.83701367933542",
      "lng": "144.14337158203128"
    },
    "additionalInfo": {}
  },
  {
    "id": "3eb7ffe0-b6cb-4867-a1c9-daea4ec2bb60",
    "name": "Mattams Pool",
    "location": {
      "country": "Australia",
      "region": "Perth, Western Australia",
      "ocean": [
        "Indian Ocean"
      ]
    },
    "coordinates": {
      "lat": "-31.86414571976753",
      "lng": "115.74491500854494"
    },
    "additionalInfo": {}
  },
  {
    "id": "3ece7d43-0b70-4337-9d9a-2e3ba22e700d",
    "name": "Shrimp Reef",
    "location": {
      "country": "Australia",
      "region": "Townsville, Queensland",
      "ocean": [
        "Pacific Ocean",
        "Coral Sea"
      ]
    },
    "coordinates": {
      "lat": "-18.95240179421961",
      "lng": "148.07853698730472"
    },
    "additionalInfo": {}
  },
  {
    "id": "3fed1f77-3886-492d-9d95-c27a59664b0a",
    "name": "Tijou Reef",
    "location": {
      "country": "Australia",
      "region": "Great Barrier Reef, Queensland",
      "ocean": [
        "Pacific Ocean",
        "Coral Sea"
      ]
    },
    "coordinates": {
      "lat": "-13.074127563815157",
      "lng": "144.01702880859378"
    },
    "additionalInfo": {}
  },
  {
    "id": "405f0719-93e6-4cbe-bf94-79ec362d1e3a",
    "name": "Bubble Cave",
    "location": {
      "country": "Australia",
      "region": "New South Wales, Australia",
      "ocean": [
        "Pacific Ocean",
        "Tasman Sea"
      ]
    },
    "coordinates": {
      "lat": "-29.926767032313723",
      "lng": "153.38884145021441"
    },
    "additionalInfo": {}
  },
  {
    "id": "40b3f096-f074-45ce-ae47-fc38f405779d",
    "name": "John Brewer Reef",
    "location": {
      "country": "Australia",
      "region": "Townsville, Queensland",
      "ocean": [
        "Pacific Ocean",
        "Coral Sea"
      ]
    },
    "coordinates": {
      "lat": "-18.629979265385817",
      "lng": "147.05406188964847"
    },
    "additionalInfo": {}
  },
  {
    "id": "410a3fc0-3f4b-42c5-865d-f09ed7159f43",
    "name": "Petrel",
    "location": {
      "country": "Australia",
      "region": "Perth, Western Australia",
      "ocean": [
        "Indian Ocean"
      ]
    },
    "coordinates": {
      "lat": "-32.27203895845449",
      "lng": "115.72036743164064"
    },
    "additionalInfo": {}
  },
  {
    "id": "413ce240-ef13-4192-95f1-a4f8eef2de2d",
    "name": "Dunbar",
    "location": {
      "country": "Australia",
      "region": "Sydney, New South Wales",
      "ocean": [
        "Pacific Ocean",
        "Tasman Sea"
      ]
    },
    "coordinates": {
      "lat": "-33.84675221435488",
      "lng": "151.28946304321292"
    },
    "additionalInfo": {}
  },
  {
    "id": "415b4d0e-c729-4075-88c3-8b030ee6b7fa",
    "name": "Oasis",
    "location": {
      "country": "Australia",
      "region": "Great Barrier Reef, Queensland",
      "ocean": [
        "Pacific Ocean",
        "Coral Sea"
      ]
    },
    "coordinates": {
      "lat": "-16.802240430531207",
      "lng": "146.27334594726565"
    },
    "additionalInfo": {}
  },
  {
    "id": "41dfe3d0-e804-4337-934f-029c9a9fc806",
    "name": "Severence Wreck",
    "location": {
      "country": "Australia",
      "region": "Queensland, Australia",
      "ocean": [
        "Pacific Ocean",
        "Coral Sea"
      ]
    },
    "coordinates": {
      "lat": "-24.11079940319933",
      "lng": "152.70356655120852"
    },
    "additionalInfo": {}
  },
  {
    "id": "41eb3edc-53e1-416b-95a1-1244cb76d0ed",
    "name": "Mandu Wall",
    "location": {
      "country": "Australia",
      "region": "Western Australia, Australia",
      "ocean": [
        "Pacific Ocean",
        "Exmouth Gulf"
      ]
    },
    "coordinates": {
      "lat": "-22.104567410727167",
      "lng": "113.87535095214845"
    },
    "additionalInfo": {}
  },
  {
    "id": "42142dd7-d2c6-40d8-a25b-04be25ac3959",
    "name": "Wistari 1",
    "location": {
      "country": "Australia",
      "region": "Queensland, Australia",
      "ocean": [
        "Pacific Ocean",
        "Coral Sea"
      ]
    },
    "coordinates": {
      "lat": "-23.448443540672837",
      "lng": "151.90381765365603"
    },
    "additionalInfo": {}
  },
  {
    "id": "425ab27a-96e6-42a6-8eb1-f71ff3f46825",
    "name": "Gropens Growel",
    "location": {
      "country": "Australia",
      "region": "Queensland, Australia",
      "ocean": [
        "Pacific Ocean",
        "Coral Sea"
      ]
    },
    "coordinates": {
      "lat": "-24.104610189896785",
      "lng": "152.71884441375735"
    },
    "additionalInfo": {}
  },
  {
    "id": "42ca97de-8f77-45e5-91af-cf5c1cb6c0ee",
    "name": "The Arch",
    "location": {
      "country": "Australia",
      "region": "Moon Island, New South Wales",
      "ocean": [
        "Pacific Ocean",
        "Tasman Sea"
      ]
    },
    "coordinates": {
      "lat": "-33.09125391261241",
      "lng": "151.67342662811282"
    },
    "additionalInfo": {}
  },
  {
    "id": "42eb9fad-757b-4ceb-8692-bbebe283f1a1",
    "name": "Bashful Bommie",
    "location": {
      "country": "Australia",
      "region": "Great Barrier Reef, Queensland",
      "ocean": [
        "Pacific Ocean",
        "Coral Sea"
      ]
    },
    "coordinates": {
      "lat": "-16.24187016583918",
      "lng": "145.8639764785767"
    },
    "additionalInfo": {}
  },
  {
    "id": "43148c34-85f2-4016-b3a8-d987e0e09d32",
    "name": "Fairfax Lookout",
    "location": {
      "country": "Australia",
      "region": "Sydney, New South Wales",
      "ocean": [
        "Pacific Ocean",
        "Tasman Sea"
      ]
    },
    "coordinates": {
      "lat": "-33.82468666324686",
      "lng": "151.2994194030762"
    },
    "additionalInfo": {}
  },
  {
    "id": "43d12c43-1c2f-4e75-99f5-c88f51daaa95",
    "name": "The Forster Pinnacle",
    "location": {
      "country": "Australia",
      "region": "Forster, New South Wales",
      "ocean": [
        "Pacific Ocean",
        "Tasman Sea"
      ]
    },
    "coordinates": {
      "lat": "-32.22071620776542",
      "lng": "152.58499145507815"
    },
    "additionalInfo": {}
  },
  {
    "id": "43d39299-73af-4179-9164-f94bdef5aad2",
    "name": "Bait Reef",
    "location": {
      "country": "Australia",
      "region": "Port Macquarie, New South Wales",
      "ocean": [
        "Pacific Ocean",
        "Tasman Sea"
      ]
    },
    "coordinates": {
      "lat": "-31.41342827771443",
      "lng": "152.9231643676758"
    },
    "additionalInfo": {}
  },
  {
    "id": "43ebed41-78d9-45c1-9182-f9a69622322a",
    "name": "Maureens Cove",
    "location": {
      "country": "Australia",
      "region": "Hook Island, Australia",
      "ocean": [
        "Pacific Ocean",
        "Coral Sea"
      ]
    },
    "coordinates": {
      "lat": "-20.063066483570882",
      "lng": "148.939483165741"
    },
    "additionalInfo": {}
  },
  {
    "id": "43f647b1-4af0-4f5f-acfc-02da0f107cf3",
    "name": "The Cathedral",
    "location": {
      "country": "Australia",
      "region": "Melbourne, Victoria",
      "ocean": [
        "Southern Ocean",
        "Bass Strait"
      ]
    },
    "coordinates": {
      "lat": "-38.28980186341",
      "lng": "144.63784217834475"
    },
    "additionalInfo": {}
  },
  {
    "id": "44373a17-388b-4d5a-9fe7-642bedee63de",
    "name": "Rocky Bay",
    "location": {
      "country": "Australia",
      "region": "Rottnest Island, Western Australia",
      "ocean": [
        "Indian Ocean"
      ]
    },
    "coordinates": {
      "lat": "-32.00720256944707",
      "lng": "115.47214508056642"
    },
    "additionalInfo": {}
  },
  {
    "id": "445638b1-ed41-4a85-9124-317751a35d49",
    "name": "Ps Commodore",
    "location": {
      "country": "Australia",
      "region": "Port Stephens, New South Wales",
      "ocean": [
        "Pacific Ocean",
        "Tasman Sea"
      ]
    },
    "coordinates": {
      "lat": "-32.95048723106514",
      "lng": "151.98314666748047"
    },
    "additionalInfo": {}
  },
  {
    "id": "447587d9-93e1-40a0-a130-f88b2966481e",
    "name": "Walt&#039;s Bommie",
    "location": {
      "country": "Australia",
      "region": "Queensland, Australia",
      "ocean": [
        "Pacific Ocean",
        "Coral Sea"
      ]
    },
    "coordinates": {
      "lat": "-23.43367846653491",
      "lng": "151.94342851638797"
    },
    "additionalInfo": {}
  },
  {
    "id": "44765ea4-25db-49f8-b8ac-aaacc47a351b",
    "name": "Waubs Bay",
    "location": {
      "country": "Australia",
      "region": "Tasmania, Australia",
      "ocean": [
        "Pacific Ocean",
        "Tasman Sea"
      ]
    },
    "coordinates": {
      "lat": "-41.90023276842023",
      "lng": "148.5118103027344"
    },
    "additionalInfo": {}
  },
  {
    "id": "449f5c50-cf4f-45d0-a6e9-39db18067d0d",
    "name": "Flinders Reef",
    "location": {
      "country": "Australia",
      "region": "Brisbane, Queensland",
      "ocean": [
        "Pacific Ocean",
        "Coral Sea"
      ]
    },
    "coordinates": {
      "lat": "-26.946556420812623",
      "lng": "153.4721374511719"
    },
    "additionalInfo": {}
  },
  {
    "id": "4526e04d-c77a-4daa-b5ce-f9abaff27f84",
    "name": "Under The Tube",
    "location": {
      "country": "Australia",
      "region": "Moon Island, New South Wales",
      "ocean": [
        "Pacific Ocean",
        "Tasman Sea"
      ]
    },
    "coordinates": {
      "lat": "-33.08488972444273",
      "lng": "151.67527198791504"
    },
    "additionalInfo": {}
  },
  {
    "id": "4551f050-be9b-4989-b91a-2899b2dc8401",
    "name": "Catalina",
    "location": {
      "country": "Australia",
      "region": "Darwin, Northern Territory",
      "ocean": [
        "Indian Ocean",
        "Timor Sea",
        "Beagle Gulf"
      ]
    },
    "coordinates": {
      "lat": "-12.48283921636538",
      "lng": "130.88562011718753"
    },
    "additionalInfo": {}
  },
  {
    "id": "4573e5df-cdb9-4a0d-ad85-021b2e740cb9",
    "name": "Old Man&#039;s Hat",
    "location": {
      "country": "Australia",
      "region": "Sydney, New South Wales",
      "ocean": [
        "Pacific Ocean",
        "Tasman Sea"
      ]
    },
    "coordinates": {
      "lat": "-33.82149577701276",
      "lng": "151.29238128662112"
    },
    "additionalInfo": {}
  },
  {
    "id": "4589eca8-3010-438f-a4b8-7bf3dd32d5a1",
    "name": "Desoto Inlet",
    "location": {
      "country": "Australia",
      "region": "New South Wales, Australia",
      "ocean": [
        "Pacific Ocean",
        "Tasman Sea"
      ]
    },
    "coordinates": {
      "lat": "-33.16222035201418",
      "lng": "151.63604736328128"
    },
    "additionalInfo": {}
  },
  {
    "id": "4652e7f3-662f-43d7-9a6e-10ec16269cb7",
    "name": "Ss Advance",
    "location": {
      "country": "Australia",
      "region": "North Avoca, New South Wales",
      "ocean": [
        "Pacific Ocean",
        "Tasman Sea"
      ]
    },
    "coordinates": {
      "lat": "-33.283184945730184",
      "lng": "151.78195953369143"
    },
    "additionalInfo": {}
  },
  {
    "id": "47339ca5-4122-42da-a4a9-ae6a45b1bc5f",
    "name": "Paradise Reef",
    "location": {
      "country": "Australia",
      "region": "Great Barrier Reef, Queensland",
      "ocean": [
        "Pacific Ocean",
        "Coral Sea"
      ]
    },
    "coordinates": {
      "lat": "-16.60197782834907",
      "lng": "145.94238281250003"
    },
    "additionalInfo": {}
  },
  {
    "id": "4742c777-21af-4010-9d0b-cc5b7da6391e",
    "name": "Windy Point",
    "location": {
      "country": "Australia",
      "region": "Sydney, New South Wales",
      "ocean": [
        "Pacific Ocean",
        "Tasman Sea"
      ]
    },
    "coordinates": {
      "lat": "-34.064961029834706",
      "lng": "151.15797042846683"
    },
    "additionalInfo": {}
  },
  {
    "id": "48645e8a-51d0-4f08-bd32-aa15f2b9a289",
    "name": "Ruby Reef",
    "location": {
      "country": "Australia",
      "region": "Great Barrier Reef, Queensland",
      "ocean": [
        "Pacific Ocean",
        "Coral Sea"
      ]
    },
    "coordinates": {
      "lat": "-15.748640837076616",
      "lng": "145.80711364746097"
    },
    "additionalInfo": {}
  },
  {
    "id": "4910f552-68f6-4355-b96d-0a13f8398528",
    "name": "Public Mooring",
    "location": {
      "country": "Australia",
      "region": "Great Barrier Reef, Queensland",
      "ocean": [
        "Pacific Ocean",
        "Coral Sea"
      ]
    },
    "coordinates": {
      "lat": "-16.429540362512938",
      "lng": "145.98817348480227"
    },
    "additionalInfo": {}
  },
  {
    "id": "4a3fd3d6-2b50-45ff-ba2c-a9e1cd36cc07",
    "name": "Thetfort Reef",
    "location": {
      "country": "Australia",
      "region": "Great Barrier Reef, Queensland",
      "ocean": [
        "Pacific Ocean",
        "Coral Sea"
      ]
    },
    "coordinates": {
      "lat": "-16.80043276064912",
      "lng": "146.18150711059573"
    },
    "additionalInfo": {}
  },
  {
    "id": "4b254cff-c469-4789-bf88-da0ec50aaa9d",
    "name": "Acropolis",
    "location": {
      "country": "Australia",
      "region": "Great Barrier Reef, Queensland",
      "ocean": [
        "Pacific Ocean",
        "Coral Sea"
      ]
    },
    "coordinates": {
      "lat": "-16.24390968265471",
      "lng": "145.8711647987366"
    },
    "additionalInfo": {}
  },
  {
    "id": "4cef367b-d543-4530-89a9-3bd1d8fe317d",
    "name": "Elford Reef",
    "location": {
      "country": "Australia",
      "region": "Great Barrier Reef, Queensland",
      "ocean": [
        "Pacific Ocean",
        "Coral Sea"
      ]
    },
    "coordinates": {
      "lat": "-16.910669049987956",
      "lng": "146.23480796813968"
    },
    "additionalInfo": {}
  },
  {
    "id": "4d0c4155-e59a-4b51-aae3-e562f76f3f8d",
    "name": "Leah Lumps",
    "location": {
      "country": "Australia",
      "region": "Port Macquarie, New South Wales",
      "ocean": [
        "Pacific Ocean",
        "Tasman Sea"
      ]
    },
    "coordinates": {
      "lat": "-31.726707064079786",
      "lng": "152.88059234619143"
    },
    "additionalInfo": {}
  },
  {
    "id": "4e027e6c-46a4-49f0-a1c2-63f95fd5715b",
    "name": "Steve&#039;s Boomie",
    "location": {
      "country": "Australia",
      "region": "Great Barrier Reef, Queensland",
      "ocean": [
        "Pacific Ocean",
        "Coral Sea"
      ]
    },
    "coordinates": {
      "lat": "-15.619069131395065",
      "lng": "145.76763153076175"
    },
    "additionalInfo": {}
  },
  {
    "id": "4e299ae1-0a16-429c-9b24-fc7e347aa2e2",
    "name": "Ex-Hmas Brisbane",
    "location": {
      "country": "Australia",
      "region": "Brisbane, Queensland",
      "ocean": [
        "Pacific Ocean",
        "Coral Sea"
      ]
    },
    "coordinates": {
      "lat": "-26.74438400827253",
      "lng": "153.1648635864258"
    },
    "additionalInfo": {}
  },
  {
    "id": "4e2b4e5d-8269-4374-83eb-ea851d80e18b",
    "name": "Pavona Clavus",
    "location": {
      "country": "Australia",
      "region": "Great Barrier Reef, Queensland",
      "ocean": [
        "Pacific Ocean",
        "Coral Sea"
      ]
    },
    "coordinates": {
      "lat": "-15.385335992052445",
      "lng": "145.76291084289554"
    },
    "additionalInfo": {}
  },
  {
    "id": "4e4caac9-aa73-470b-837b-021bc69ce658",
    "name": "Undine Reef",
    "location": {
      "country": "Australia",
      "region": "Great Barrier Reef, Queensland",
      "ocean": [
        "Pacific Ocean",
        "Coral Sea"
      ]
    },
    "coordinates": {
      "lat": "-16.124655213490456",
      "lng": "145.67493438720706"
    },
    "additionalInfo": {}
  },
  {
    "id": "4e74a004-e085-4ac4-a8d7-8967ffb2d6bf",
    "name": "The Canyons",
    "location": {
      "country": "Australia",
      "region": "Batemans Bay, New South Wales",
      "ocean": [
        "Pacific Ocean",
        "Tasman Sea"
      ]
    },
    "coordinates": {
      "lat": "-35.77593859314519",
      "lng": "150.24880886077884"
    },
    "additionalInfo": {}
  },
  {
    "id": "4e85f248-1248-4112-b8d0-fba67d971d75",
    "name": "Sunset Drift",
    "location": {
      "country": "Australia",
      "region": "Queensland, Australia",
      "ocean": [
        "Pacific Ocean",
        "Coral Sea"
      ]
    },
    "coordinates": {
      "lat": "-24.121336046337454",
      "lng": "152.71566867828372"
    },
    "additionalInfo": {}
  },
  {
    "id": "4e924ab0-72c9-48c7-acb2-072b36b2062a",
    "name": "Navy Pier",
    "location": {
      "country": "Australia",
      "region": "Western Australia, Australia",
      "ocean": [
        "Pacific Ocean",
        "Exmouth Gulf"
      ]
    },
    "coordinates": {
      "lat": "-21.81720184462396",
      "lng": "114.19262409210206"
    },
    "additionalInfo": {}
  },
  {
    "id": "4e949199-404a-4283-a05b-8a408cceed2c",
    "name": "Mantaray Bay",
    "location": {
      "country": "Australia",
      "region": "Hook Island, Australia",
      "ocean": [
        "Pacific Ocean",
        "Coral Sea"
      ]
    },
    "coordinates": {
      "lat": "-20.05943844697596",
      "lng": "148.9563059806824"
    },
    "additionalInfo": {}
  },
  {
    "id": "4eb86e26-bea1-427b-bf9a-4e5ebed65921",
    "name": "St Leonards Pier",
    "location": {
      "country": "Australia",
      "region": "Victoria, Australia",
      "ocean": [
        "Southern Ocean"
      ]
    },
    "coordinates": {
      "lat": "-38.17022593203341",
      "lng": "144.71968173980716"
    },
    "additionalInfo": {}
  },
  {
    "id": "4f70cf06-98a2-4b86-aad2-23fdb597de60",
    "name": "Escape Reef",
    "location": {
      "country": "Australia",
      "region": "Great Barrier Reef, Queensland",
      "ocean": [
        "Pacific Ocean",
        "Coral Sea"
      ]
    },
    "coordinates": {
      "lat": "-15.814717074012293",
      "lng": "145.7817077636719"
    },
    "additionalInfo": {}
  },
  {
    "id": "4fcf1bed-318f-4d63-b270-4c24240d2516",
    "name": "Big Broadhurst Reef",
    "location": {
      "country": "Australia",
      "region": "Townsville, Queensland",
      "ocean": [
        "Pacific Ocean",
        "Coral Sea"
      ]
    },
    "coordinates": {
      "lat": "-18.90433768199744",
      "lng": "147.7256011962891"
    },
    "additionalInfo": {}
  },
  {
    "id": "4fd7622b-8349-4e4d-acb5-448e42ba1adc",
    "name": "Three Pyramids",
    "location": {
      "country": "Australia",
      "region": "Queensland, Australia",
      "ocean": [
        "Pacific Ocean",
        "Coral Sea"
      ]
    },
    "coordinates": {
      "lat": "-24.110251003974486",
      "lng": "152.7058839797974"
    },
    "additionalInfo": {}
  },
  {
    "id": "50e0060c-c397-4a9d-b9f0-2ffd14e430a4",
    "name": "Michaelmas Cay",
    "location": {
      "country": "Australia",
      "region": "Great Barrier Reef, Queensland",
      "ocean": [
        "Pacific Ocean",
        "Coral Sea"
      ]
    },
    "coordinates": {
      "lat": "-16.604342577194295",
      "lng": "145.97291707992557"
    },
    "additionalInfo": {}
  },
  {
    "id": "51034254-b194-4762-885b-c9668b5cc2b4",
    "name": "Ps Yarra Yarra",
    "location": {
      "country": "Australia",
      "region": "Port Stephens, New South Wales",
      "ocean": [
        "Pacific Ocean",
        "Tasman Sea"
      ]
    },
    "coordinates": {
      "lat": "-32.89313750722355",
      "lng": "151.82659149169925"
    },
    "additionalInfo": {}
  },
  {
    "id": "51a79b4f-6bd6-4d8b-8ce8-58252ad01ed9",
    "name": "Lvt4A (The Tank)",
    "location": {
      "country": "Australia",
      "region": "Port Stephens, New South Wales",
      "ocean": [
        "Pacific Ocean",
        "Tasman Sea"
      ]
    },
    "coordinates": {
      "lat": "-32.8487308131706",
      "lng": "152.0212554931641"
    },
    "additionalInfo": {}
  },
  {
    "id": "53b1c4b6-a9e1-4f89-93f1-0cf25b1aa02c",
    "name": "Murray&#039;s Reef",
    "location": {
      "country": "Australia",
      "region": "Jervis Bay Territory, Australia",
      "ocean": [
        "Pacific Ocean",
        "Tasman Sea"
      ]
    },
    "coordinates": {
      "lat": "-35.124625346346924",
      "lng": "150.75243651866916"
    },
    "additionalInfo": {}
  },
  {
    "id": "541dd43c-d13f-4b29-9f4d-a9940bf9780f",
    "name": "Flora Reef",
    "location": {
      "country": "Australia",
      "region": "Great Barrier Reef, Queensland",
      "ocean": [
        "Pacific Ocean",
        "Coral Sea"
      ]
    },
    "coordinates": {
      "lat": "-17.188026970861955",
      "lng": "146.34338378906253"
    },
    "additionalInfo": {}
  },
  {
    "id": "54c500e0-4c39-4d7f-9e13-39950c54451a",
    "name": "Woodman Point",
    "location": {
      "country": "Australia",
      "region": "Perth, Western Australia",
      "ocean": [
        "Indian Ocean"
      ]
    },
    "coordinates": {
      "lat": "-32.136082956202074",
      "lng": "115.72895050048828"
    },
    "additionalInfo": {}
  },
  {
    "id": "557cd428-fb97-469f-8d2c-2e01270ccf0f",
    "name": "Bush Rangers Bay",
    "location": {
      "country": "Australia",
      "region": "Shell Cove, New South Wales",
      "ocean": [
        "Pacific Ocean",
        "Tasman Sea"
      ]
    },
    "coordinates": {
      "lat": "-34.59778814316495",
      "lng": "150.9017658233643"
    },
    "additionalInfo": {}
  },
  {
    "id": "558465ce-bdb3-478f-9a05-312213bb2ec2",
    "name": "Turtle Bommie",
    "location": {
      "country": "Australia",
      "region": "Great Barrier Reef, Queensland",
      "ocean": [
        "Pacific Ocean",
        "Coral Sea"
      ]
    },
    "coordinates": {
      "lat": "-16.002750689412192",
      "lng": "145.772180557251"
    },
    "additionalInfo": {}
  },
  {
    "id": "5598385d-7ca9-40f5-ae0e-1e2acb6aaeab",
    "name": "The Nord",
    "location": {
      "country": "Australia",
      "region": "Tasmania, Australia",
      "ocean": [
        "Pacific Ocean",
        "Tasman Sea"
      ]
    },
    "coordinates": {
      "lat": "-43.29120116988416",
      "lng": "147.98171997070315"
    },
    "additionalInfo": {}
  },
  {
    "id": "55a95f93-41f8-4ba7-8836-3d186c488141",
    "name": "Oysterland Reef",
    "location": {
      "country": "Australia",
      "region": "Great Barrier Reef, Queensland",
      "ocean": [
        "Pacific Ocean",
        "Coral Sea"
      ]
    },
    "coordinates": {
      "lat": "-15.552267996712514",
      "lng": "145.51563262939456"
    },
    "additionalInfo": {}
  },
  {
    "id": "5634cb84-cf67-4b93-9a3e-01053bd74651",
    "name": "Cobia Hole",
    "location": {
      "country": "Australia",
      "region": "Great Barrier Reef, Queensland",
      "ocean": [
        "Pacific Ocean",
        "Coral Sea"
      ]
    },
    "coordinates": {
      "lat": "-14.699179980225109",
      "lng": "145.34980773925784"
    },
    "additionalInfo": {}
  },
  {
    "id": "56d3d9f9-9ecd-4d0b-9675-6c3c96f836d1",
    "name": "Manta Wall",
    "location": {
      "country": "Australia",
      "region": "Great Barrier Reef, Queensland",
      "ocean": [
        "Pacific Ocean",
        "Coral Sea"
      ]
    },
    "coordinates": {
      "lat": "-11.81358806977126",
      "lng": "144.0184020996094"
    },
    "additionalInfo": {}
  },
  {
    "id": "5858b4de-eab6-4109-8ab6-e7565d0dd150",
    "name": "Shiprock",
    "location": {
      "country": "Australia",
      "region": "Sydney, New South Wales",
      "ocean": [
        "Pacific Ocean",
        "Tasman Sea"
      ]
    },
    "coordinates": {
      "lat": "-34.069289278063756",
      "lng": "151.12978577613833"
    },
    "additionalInfo": {}
  },
  {
    "id": "59342629-6832-4c8a-b4af-26d87853c532",
    "name": "Ss Osprey",
    "location": {
      "country": "Australia",
      "region": "Port Stephens, New South Wales",
      "ocean": [
        "Pacific Ocean",
        "Tasman Sea"
      ]
    },
    "coordinates": {
      "lat": "-33.007511861408844",
      "lng": "152.010612487793"
    },
    "additionalInfo": {}
  },
  {
    "id": "598d1d25-d40e-467e-b4c2-11c2e9c16da0",
    "name": "Lady Elizabeth",
    "location": {
      "country": "Australia",
      "region": "Rottnest Island, Western Australia",
      "ocean": [
        "Indian Ocean"
      ]
    },
    "coordinates": {
      "lat": "-32.03078117393706",
      "lng": "115.55660247802736"
    },
    "additionalInfo": {}
  },
  {
    "id": "59901f3e-8817-43e5-81f5-93b2ad3c7744",
    "name": "Fly Point",
    "location": {
      "country": "Australia",
      "region": "Nelson Bay, New South Wales",
      "ocean": [
        "Pacific Ocean",
        "Tasman Sea"
      ]
    },
    "coordinates": {
      "lat": "-32.714176813668125",
      "lng": "152.15168595314026"
    },
    "additionalInfo": {}
  },
  {
    "id": "59be9fa1-ffbc-4bd2-aa02-9298cbcc2d6c",
    "name": "Temple Of Doom",
    "location": {
      "country": "Australia",
      "region": "Great Barrier Reef, Queensland",
      "ocean": [
        "Pacific Ocean",
        "Coral Sea"
      ]
    },
    "coordinates": {
      "lat": "-15.507115344526456",
      "lng": "145.7912349700928"
    },
    "additionalInfo": {}
  },
  {
    "id": "59c64481-93df-4849-ad08-b4adc18cd8a6",
    "name": "The Dome",
    "location": {
      "country": "Australia",
      "region": "South Coast, New South Wales",
      "ocean": [
        "Indian Ocean",
        "Arabian Sea",
        "Gulf Of Tadjoura",
        "South Coast"
      ]
    },
    "coordinates": {
      "lat": "11.599440555123305",
      "lng": "42.86109924316407"
    },
    "additionalInfo": {}
  },
  {
    "id": "5d09e839-b307-40d1-b424-88596c46f7d9",
    "name": "Curtin Wrecks",
    "location": {
      "country": "Australia",
      "region": "Moreton Island, Queensland",
      "ocean": [
        "Pacific Ocean",
        "Coral Sea",
        "Moreton Bay"
      ]
    },
    "coordinates": {
      "lat": "-27.09703135915299",
      "lng": "153.34304809570315"
    },
    "additionalInfo": {}
  },
  {
    "id": "5d95bdb3-38a3-479a-9676-262defde68d0",
    "name": "The Pinnacles",
    "location": {
      "country": "Australia",
      "region": "Hook Island, Australia",
      "ocean": [
        "Pacific Ocean",
        "Coral Sea"
      ]
    },
    "coordinates": {
      "lat": "-20.072257134083436",
      "lng": "148.96016836166385"
    },
    "additionalInfo": {}
  },
  {
    "id": "5dd39047-b7c4-4788-ba71-8c3bfa03c96f",
    "name": "Gothenburg",
    "location": {
      "country": "Australia",
      "region": "Townsville, Queensland",
      "ocean": [
        "Pacific Ocean",
        "Coral Sea"
      ]
    },
    "coordinates": {
      "lat": "-19.36038488536514",
      "lng": "147.84851074218753"
    },
    "additionalInfo": {}
  },
  {
    "id": "5e49f6cf-d9f0-4353-9480-8f2a39d35485",
    "name": "Pixie Pinnacle",
    "location": {
      "country": "Australia",
      "region": "Great Barrier Reef, Queensland",
      "ocean": [
        "Pacific Ocean",
        "Coral Sea"
      ]
    },
    "coordinates": {
      "lat": "-14.929961082081324",
      "lng": "145.67600727081302"
    },
    "additionalInfo": {}
  },
  {
    "id": "5f32bddc-f5b7-49de-8653-e313dc816cc1",
    "name": "Macleay",
    "location": {
      "country": "Australia",
      "region": "Hawks Nest, New South Wales",
      "ocean": [
        "Pacific Ocean",
        "Tasman Sea"
      ]
    },
    "coordinates": {
      "lat": "-32.69399919441369",
      "lng": "152.2468185424805"
    },
    "additionalInfo": {}
  },
  {
    "id": "5ff3e97d-9fe7-43fb-ba44-fb1452e61d97",
    "name": "The Drop Off",
    "location": {
      "country": "Australia",
      "region": "Great Barrier Reef, Queensland",
      "ocean": [
        "Pacific Ocean",
        "Coral Sea"
      ]
    },
    "coordinates": {
      "lat": "-16.533202333929136",
      "lng": "145.93834877014163"
    },
    "additionalInfo": {}
  },
  {
    "id": "61156a45-2dee-4849-91aa-a571438075ed",
    "name": "Fifth Point",
    "location": {
      "country": "Australia",
      "region": "Queensland, Australia",
      "ocean": [
        "Pacific Ocean",
        "Coral Sea"
      ]
    },
    "coordinates": {
      "lat": "-23.429228934100177",
      "lng": "151.9880819320679"
    },
    "additionalInfo": {}
  },
  {
    "id": "6215e460-f5f8-4635-a845-56605ff10416",
    "name": "Hastings Reef",
    "location": {
      "country": "Australia",
      "region": "Great Barrier Reef, Queensland",
      "ocean": [
        "Pacific Ocean",
        "Coral Sea"
      ]
    },
    "coordinates": {
      "lat": "-16.520365912442102",
      "lng": "146.0124206542969"
    },
    "additionalInfo": {}
  },
  {
    "id": "651089bf-c986-430c-adb2-a707e5cf276c",
    "name": "Briggs Reef",
    "location": {
      "country": "Australia",
      "region": "Great Barrier Reef, Queensland",
      "ocean": [
        "Pacific Ocean",
        "Coral Sea"
      ]
    },
    "coordinates": {
      "lat": "-16.937602261550076",
      "lng": "146.20674133300784"
    },
    "additionalInfo": {}
  },
  {
    "id": "65c8334b-447b-4f2d-90a3-525dc98a3ae1",
    "name": "Catherine Adamson",
    "location": {
      "country": "Australia",
      "region": "Sydney, New South Wales",
      "ocean": [
        "Pacific Ocean",
        "Tasman Sea"
      ]
    },
    "coordinates": {
      "lat": "-33.81998051001225",
      "lng": "151.28547191619876"
    },
    "additionalInfo": {}
  },
  {
    "id": "65d85049-721c-43c8-888a-1696df4337bb",
    "name": "Yongala",
    "location": {
      "country": "Australia",
      "region": "Townsville, Queensland",
      "ocean": [
        "Pacific Ocean",
        "Coral Sea"
      ]
    },
    "coordinates": {
      "lat": "-19.08547999705885",
      "lng": "147.59307861328128"
    },
    "additionalInfo": {}
  },
  {
    "id": "666e4ecb-8c03-4cfa-8514-341b009044c9",
    "name": "Tubes",
    "location": {
      "country": "Australia",
      "region": "Queensland, Australia",
      "ocean": [
        "Pacific Ocean",
        "Coral Sea"
      ]
    },
    "coordinates": {
      "lat": "-24.116812054897522",
      "lng": "152.72212743759158"
    },
    "additionalInfo": {}
  },
  {
    "id": "67009a79-41bb-4118-9b4f-aeb2f137bb3a",
    "name": "Turtle Station",
    "location": {
      "country": "Australia",
      "region": "Queensland, Australia",
      "ocean": [
        "Pacific Ocean",
        "Coral Sea"
      ]
    },
    "coordinates": {
      "lat": "-24.10592248479705",
      "lng": "152.7129435539246"
    },
    "additionalInfo": {}
  },
  {
    "id": "67e17f5f-d3bb-41f9-92a6-b63337ef5ab5",
    "name": "Henry Head Reef",
    "location": {
      "country": "Australia",
      "region": "Sydney, New South Wales",
      "ocean": [
        "Pacific Ocean",
        "Tasman Sea"
      ]
    },
    "coordinates": {
      "lat": "-33.997635889597575",
      "lng": "151.23643040657046"
    },
    "additionalInfo": {}
  },
  {
    "id": "681efc19-09f9-43f3-b555-64c39c9bbb43",
    "name": "Anybodys",
    "location": {
      "country": "Australia",
      "region": "Great Barrier Reef, Queensland",
      "ocean": [
        "Pacific Ocean",
        "Coral Sea"
      ]
    },
    "coordinates": {
      "lat": "-16.016445986304582",
      "lng": "145.79608440399173"
    },
    "additionalInfo": {}
  },
  {
    "id": "68670a6b-a5a3-4be9-a965-3d08c9b72fc2",
    "name": "Fishbowl",
    "location": {
      "country": "Australia",
      "region": "Sydney, New South Wales",
      "ocean": [
        "Pacific Ocean",
        "Tasman Sea"
      ]
    },
    "coordinates": {
      "lat": "-33.84340175438788",
      "lng": "151.28624439239505"
    },
    "additionalInfo": {}
  },
  {
    "id": "687a3273-5c04-4da4-8f76-b7839772e1a9",
    "name": "Catterthun",
    "location": {
      "country": "Australia",
      "region": "Seal Rocks, New South Wales",
      "ocean": [
        "Pacific Ocean",
        "Tasman Sea"
      ]
    },
    "coordinates": {
      "lat": "-32.415037550392164",
      "lng": "152.592887878418"
    },
    "additionalInfo": {}
  },
  {
    "id": "68884997-07a9-44d0-ad4f-762ffcf63008",
    "name": "Rosebud Reef",
    "location": {
      "country": "Australia",
      "region": "Melbourne, Victoria",
      "ocean": [
        "Southern Ocean",
        "Port Phillip Bay"
      ]
    },
    "coordinates": {
      "lat": "-38.3308843195997",
      "lng": "144.8918151855469"
    },
    "additionalInfo": {}
  },
  {
    "id": "6956ca08-8e81-4e69-8b6c-55e42e35b7f2",
    "name": "Challenger Bay",
    "location": {
      "country": "Australia",
      "region": "Great Barrier Reef, Queensland",
      "ocean": [
        "Pacific Ocean",
        "Coral Sea"
      ]
    },
    "coordinates": {
      "lat": "-14.915903449742387",
      "lng": "145.69001913070682"
    },
    "additionalInfo": {}
  },
  {
    "id": "699127be-776b-49a6-8bd1-18678041bafd",
    "name": "Dee Why Wide",
    "location": {
      "country": "Australia",
      "region": "Sydney, New South Wales",
      "ocean": [
        "Pacific Ocean",
        "Tasman Sea"
      ]
    },
    "coordinates": {
      "lat": "-33.761524207425296",
      "lng": "151.3045692443848"
    },
    "additionalInfo": {}
  },
  {
    "id": "69d7e240-bce9-4d6d-9f3e-72034da35876",
    "name": "Bligh Reef",
    "location": {
      "country": "Australia",
      "region": "Great Barrier Reef, Queensland",
      "ocean": [
        "Pacific Ocean",
        "Coral Sea"
      ]
    },
    "coordinates": {
      "lat": "-12.833226023521243",
      "lng": "143.81652832031253"
    },
    "additionalInfo": {}
  },
  {
    "id": "6b60e498-10c9-4cc2-b522-e6ee98c45c9e",
    "name": "The Stepping Stones",
    "location": {
      "country": "Australia",
      "region": "Townsville, Queensland",
      "ocean": [
        "Pacific Ocean",
        "Coral Sea"
      ]
    },
    "coordinates": {
      "lat": "-19.793841078591594",
      "lng": "149.06455993652347"
    },
    "additionalInfo": {}
  },
  {
    "id": "6bf66d28-0691-46d0-8191-823fd8c1cf2f",
    "name": "The Tunnel",
    "location": {
      "country": "Australia",
      "region": "Batemans Bay, New South Wales",
      "ocean": [
        "Pacific Ocean",
        "Tasman Sea"
      ]
    },
    "coordinates": {
      "lat": "-35.77811466475622",
      "lng": "150.24780035018924"
    },
    "additionalInfo": {}
  },
  {
    "id": "6c7aff39-89cc-463b-9838-ec8b55cc9bc4",
    "name": "Cook Island",
    "location": {
      "country": "Australia",
      "region": "New South Wales, Australia",
      "ocean": [
        "Pacific Ocean",
        "Tasman Sea"
      ]
    },
    "coordinates": {
      "lat": "-28.194879220733466",
      "lng": "153.5768508911133"
    },
    "additionalInfo": {}
  },
  {
    "id": "6c9a3107-bba1-4df9-b6df-f65291d70b19",
    "name": "Corsair Rock",
    "location": {
      "country": "Australia",
      "region": "Melbourne, Victoria",
      "ocean": [
        "Southern Ocean",
        "Bass Strait"
      ]
    },
    "coordinates": {
      "lat": "-38.298828528689924",
      "lng": "144.63861465454104"
    },
    "additionalInfo": {}
  },
  {
    "id": "6caa20ab-acc5-48ea-bcbc-bd8a22b96806",
    "name": "Idol Bay",
    "location": {
      "country": "Australia",
      "region": "Forster, New South Wales",
      "ocean": [
        "Pacific Ocean",
        "Tasman Sea"
      ]
    },
    "coordinates": {
      "lat": "-32.19653293006282",
      "lng": "152.5540924072266"
    },
    "additionalInfo": {}
  },
  {
    "id": "6d608443-bbda-4383-be53-9d368163c02f",
    "name": "The Cliffs",
    "location": {
      "country": "Australia",
      "region": "Queensland, Australia",
      "ocean": [
        "Pacific Ocean",
        "Coral Sea"
      ]
    },
    "coordinates": {
      "lat": "-23.460057572691706",
      "lng": "151.9169068336487"
    },
    "additionalInfo": {}
  },
  {
    "id": "6d8190c9-7a25-476a-bf82-24cdaeeafff2",
    "name": "Reef Magic",
    "location": {
      "country": "Australia",
      "region": "Great Barrier Reef, Queensland",
      "ocean": [
        "Pacific Ocean",
        "Coral Sea"
      ]
    },
    "coordinates": {
      "lat": "-16.427811507274164",
      "lng": "145.98916053771975"
    },
    "additionalInfo": {}
  },
  {
    "id": "6d83be88-440c-4d9e-8406-f83e6038e770",
    "name": "Gorgonian Gardens",
    "location": {
      "country": "Australia",
      "region": "Great Barrier Reef, Queensland",
      "ocean": [
        "Pacific Ocean",
        "Coral Sea"
      ]
    },
    "coordinates": {
      "lat": "-16.60033276851112",
      "lng": "146.10589027404788"
    },
    "additionalInfo": {}
  },
  {
    "id": "6e4ada53-73a5-44e6-85d4-f87131a5064c",
    "name": "Portsea Hole",
    "location": {
      "country": "Australia",
      "region": "Melbourne, Victoria",
      "ocean": [
        "Southern Ocean",
        "Bass Strait"
      ]
    },
    "coordinates": {
      "lat": "-38.31364599165794",
      "lng": "144.71079826354983"
    },
    "additionalInfo": {}
  },
  {
    "id": "6f291f2d-ddf0-4fbd-92bc-a261c86587b0",
    "name": "Gordon&#039;s Bay",
    "location": {
      "country": "Australia",
      "region": "Sydney, New South Wales",
      "ocean": [
        "Pacific Ocean",
        "Tasman Sea"
      ]
    },
    "coordinates": {
      "lat": "-33.91555903914986",
      "lng": "151.26464992761615"
    },
    "additionalInfo": {}
  },
  {
    "id": "70244c68-a251-467c-bab0-ae1ebf8d5135",
    "name": "Caves Cove",
    "location": {
      "country": "Australia",
      "region": "Hook Island, Australia",
      "ocean": [
        "Pacific Ocean",
        "Coral Sea"
      ]
    },
    "coordinates": {
      "lat": "-20.11727547204656",
      "lng": "148.88418674468997"
    },
    "additionalInfo": {}
  },
  {
    "id": "704b0a3a-8810-4b13-8f6f-7ee804219747",
    "name": "Tangalooma Wrecks",
    "location": {
      "country": "Australia",
      "region": "Moreton Island, Queensland",
      "ocean": [
        "Pacific Ocean",
        "Coral Sea",
        "Moreton Bay"
      ]
    },
    "coordinates": {
      "lat": "-27.167917007760664",
      "lng": "153.34991455078128"
    },
    "additionalInfo": {}
  },
  {
    "id": "704f2ed3-825d-4cb1-8b08-cc1bd0e4237b",
    "name": "Glenelg Barge",
    "location": {
      "country": "Australia",
      "region": "Adelaide, South Australia",
      "ocean": [
        "Southern Ocean",
        "Great Australian Bight",
        "St Vincent Gulf"
      ]
    },
    "coordinates": {
      "lat": "-34.98472184461852",
      "lng": "138.46549987792972"
    },
    "additionalInfo": {}
  },
  {
    "id": "70ffa139-3b63-4978-933a-0c5aa0f862db",
    "name": "Pixie Wall",
    "location": {
      "country": "Australia",
      "region": "Great Barrier Reef, Queensland",
      "ocean": [
        "Pacific Ocean",
        "Coral Sea"
      ]
    },
    "coordinates": {
      "lat": "-14.926280891057557",
      "lng": "145.67865729331973"
    },
    "additionalInfo": {}
  },
  {
    "id": "71120da4-b0f3-428f-bb2a-8d0b598c64cc",
    "name": "Canyons",
    "location": {
      "country": "Australia",
      "region": "Great Barrier Reef, Queensland",
      "ocean": [
        "Pacific Ocean",
        "Coral Sea"
      ]
    },
    "coordinates": {
      "lat": "-16.576642346151907",
      "lng": "146.09181404113772"
    },
    "additionalInfo": {}
  },
  {
    "id": "71f834b0-6d2a-4eb7-98eb-3cde00b9dc43",
    "name": "Ringbolt Bay",
    "location": {
      "country": "Australia",
      "region": "South West, Western Australia",
      "ocean": [
        "Oceania",
        "Australia",
        "Western Australia",
        "South West"
      ]
    },
    "coordinates": {
      "lat": "-34.369458264397245",
      "lng": "115.1524043083191"
    },
    "additionalInfo": {}
  },
  {
    "id": "7213eb22-376e-4f79-82ab-4e889105197c",
    "name": "Raging Horn",
    "location": {
      "country": "Australia",
      "region": "Great Barrier Reef, Queensland",
      "ocean": [
        "Pacific Ocean",
        "Coral Sea"
      ]
    },
    "coordinates": {
      "lat": "-13.892077654618134",
      "lng": "146.55195236206058"
    },
    "additionalInfo": {}
  },
  {
    "id": "72302e84-2489-4fa5-ac23-7fb366a0a040",
    "name": "Coral Gardens",
    "location": {
      "country": "Australia",
      "region": "Queensland, Australia",
      "ocean": [
        "Pacific Ocean",
        "Coral Sea"
      ]
    },
    "coordinates": {
      "lat": "-23.445884379359807",
      "lng": "151.90991163253787"
    },
    "additionalInfo": {}
  },
  {
    "id": "7280478d-d82c-48f5-9398-a004fba8debe",
    "name": "Lodestone Reef",
    "location": {
      "country": "Australia",
      "region": "Townsville, Queensland",
      "ocean": [
        "Pacific Ocean",
        "Coral Sea"
      ]
    },
    "coordinates": {
      "lat": "-19.230121748241285",
      "lng": "146.82884216308597"
    },
    "additionalInfo": {}
  },
  {
    "id": "7440c566-3a9f-4216-81ed-7f9a50f456f1",
    "name": "Euston Reef",
    "location": {
      "country": "Australia",
      "region": "Great Barrier Reef, Queensland",
      "ocean": [
        "Pacific Ocean",
        "Coral Sea"
      ]
    },
    "coordinates": {
      "lat": "-16.6835550996493",
      "lng": "146.25137329101565"
    },
    "additionalInfo": {}
  },
  {
    "id": "7454bbf7-4ade-464d-9fe8-739bfca97945",
    "name": "Magic Wall",
    "location": {
      "country": "Australia",
      "region": "Great Barrier Reef, Queensland",
      "ocean": [
        "Pacific Ocean",
        "Coral Sea"
      ]
    },
    "coordinates": {
      "lat": "-16.458475821466738",
      "lng": "145.9750843048096"
    },
    "additionalInfo": {}
  },
  {
    "id": "745de526-5aca-4cad-9b40-6b6699af76a0",
    "name": "North Wst Reef",
    "location": {
      "country": "Australia",
      "region": "Western Australia, Australia",
      "ocean": [
        "Pacific Ocean",
        "Exmouth Gulf"
      ]
    },
    "coordinates": {
      "lat": "-21.793613732434956",
      "lng": "114.12631988525392"
    },
    "additionalInfo": {}
  },
  {
    "id": "7468ff83-8a1f-4309-a103-82d6758ab7ea",
    "name": "Hole In The Wall",
    "location": {
      "country": "Australia",
      "region": "Queensland, Australia",
      "ocean": [
        "Pacific Ocean",
        "Coral Sea"
      ]
    },
    "coordinates": {
      "lat": "-23.442380216536655",
      "lng": "151.90338850021365"
    },
    "additionalInfo": {}
  },
  {
    "id": "74b1f477-83b8-4bb2-a7a2-1a0a6f4bdbfb",
    "name": "The Bommie",
    "location": {
      "country": "Australia",
      "region": "Queensland, Australia",
      "ocean": [
        "Pacific Ocean",
        "Coral Sea"
      ]
    },
    "coordinates": {
      "lat": "-23.44291175283186",
      "lng": "151.90457940101624"
    },
    "additionalInfo": {}
  },
  {
    "id": "74e53efb-6bd0-4ada-ad79-2fbd2b95db6a",
    "name": "Cataran Bay",
    "location": {
      "country": "Australia",
      "region": "Border Island, Australia",
      "ocean": [
        "Pacific Ocean",
        "Coral Sea"
      ]
    },
    "coordinates": {
      "lat": "-20.15466671259975",
      "lng": "149.03293132781985"
    },
    "additionalInfo": {}
  },
  {
    "id": "7525aab4-7e29-42f3-8dc2-6eb98974fd00",
    "name": "Shark Island",
    "location": {
      "country": "Australia",
      "region": "South Coast, New South Wales",
      "ocean": [
        "Indian Ocean",
        "Arabian Sea",
        "Gulf Of Tadjoura",
        "South Coast"
      ]
    },
    "coordinates": {
      "lat": "11.601794723220182",
      "lng": "42.92804718017579"
    },
    "additionalInfo": {}
  },
  {
    "id": "75a9e8b7-18ae-4e27-82fa-72485fcf9044",
    "name": "Hole In The Wall",
    "location": {
      "country": "Australia",
      "region": "Queensland, Australia",
      "ocean": [
        "Pacific Ocean",
        "Coral Sea"
      ]
    },
    "coordinates": {
      "lat": "-23.432890949577686",
      "lng": "151.92321538925174"
    },
    "additionalInfo": {}
  },
  {
    "id": "75d37dee-f250-40f9-9763-57b5736c403d",
    "name": "Whale Bommie",
    "location": {
      "country": "Australia",
      "region": "Great Barrier Reef, Queensland",
      "ocean": [
        "Pacific Ocean",
        "Coral Sea"
      ]
    },
    "coordinates": {
      "lat": "-16.78728555269252",
      "lng": "146.26064300537112"
    },
    "additionalInfo": {}
  },
  {
    "id": "76986199-241e-422b-88da-110652d774b9",
    "name": "Goggle Gardens",
    "location": {
      "country": "Australia",
      "region": "Great Barrier Reef, Queensland",
      "ocean": [
        "Pacific Ocean",
        "Coral Sea"
      ]
    },
    "coordinates": {
      "lat": "-14.951253118571096",
      "lng": "145.68343162536624"
    },
    "additionalInfo": {}
  },
  {
    "id": "76ea10fa-d66b-49b9-866d-9a50fbc4159f",
    "name": "Staghorn Bank",
    "location": {
      "country": "Australia",
      "region": "Queensland, Australia",
      "ocean": [
        "Pacific Ocean",
        "Coral Sea"
      ]
    },
    "coordinates": {
      "lat": "-23.448679768448457",
      "lng": "151.91278696060184"
    },
    "additionalInfo": {}
  },
  {
    "id": "77df76de-0947-4368-a5cd-bfc953c50bb7",
    "name": "Pellowe Reef",
    "location": {
      "country": "Australia",
      "region": "Great Barrier Reef, Queensland",
      "ocean": [
        "Pacific Ocean",
        "Coral Sea"
      ]
    },
    "coordinates": {
      "lat": "-16.85971996332676",
      "lng": "146.35416358709335"
    },
    "additionalInfo": {}
  },
  {
    "id": "78cdd96a-b423-4a1b-b25c-d2f9b3a1d0a0",
    "name": "Timose",
    "location": {
      "country": "Australia",
      "region": "Great Barrier Reef, Queensland",
      "ocean": [
        "Pacific Ocean",
        "Coral Sea"
      ]
    },
    "coordinates": {
      "lat": "-16.90980679514409",
      "lng": "146.20790004730227"
    },
    "additionalInfo": {}
  },
  {
    "id": "78ffd37b-809e-4397-b590-2374bd232d80",
    "name": "The Arch",
    "location": {
      "country": "Australia",
      "region": "Batemans Bay, New South Wales",
      "ocean": [
        "Pacific Ocean",
        "Tasman Sea"
      ]
    },
    "coordinates": {
      "lat": "-35.776373812231874",
      "lng": "150.24739265441897"
    },
    "additionalInfo": {}
  },
  {
    "id": "79e0ecd3-719b-42ea-8f54-d167912033aa",
    "name": "The Horseshoe",
    "location": {
      "country": "Australia",
      "region": "Great Barrier Reef, Queensland",
      "ocean": [
        "Pacific Ocean",
        "Coral Sea"
      ]
    },
    "coordinates": {
      "lat": "-16.81653684910519",
      "lng": "146.17069244384768"
    },
    "additionalInfo": {}
  },
  {
    "id": "79e5f54c-a533-4ca9-9036-9367ff3b14da",
    "name": "Dragon Rock",
    "location": {
      "country": "Australia",
      "region": "Batemans Bay, New South Wales",
      "ocean": [
        "Pacific Ocean",
        "Tasman Sea"
      ]
    },
    "coordinates": {
      "lat": "-35.75069181054448",
      "lng": "150.26262760162356"
    },
    "additionalInfo": {}
  },
  {
    "id": "7adb4cad-25a9-4010-95ba-c3b63bc25738",
    "name": "Broken Patches",
    "location": {
      "country": "Australia",
      "region": "Great Barrier Reef, Queensland",
      "ocean": [
        "Pacific Ocean",
        "Coral Sea"
      ]
    },
    "coordinates": {
      "lat": "-16.56677047595375",
      "lng": "145.9812641143799"
    },
    "additionalInfo": {}
  },
  {
    "id": "7bd5c948-0740-4025-9e2b-f3ad9099bf5e",
    "name": "Furneaux Group",
    "location": {
      "country": "Australia",
      "region": "Flinders Island, Tasmania",
      "ocean": [
        "Southern Ocean",
        "Bass Strait"
      ]
    },
    "coordinates": {
      "lat": "-40.16523181040236",
      "lng": "148.52691650390628"
    },
    "additionalInfo": {}
  },
  {
    "id": "7c7e128a-9a69-4481-b9b9-245be35967c8",
    "name": "Seahorse Gardens",
    "location": {
      "country": "Australia",
      "region": "Nelson Bay, New South Wales",
      "ocean": [
        "Pacific Ocean",
        "Tasman Sea"
      ]
    },
    "coordinates": {
      "lat": "-32.715124643295376",
      "lng": "152.14998006820682"
    },
    "additionalInfo": {}
  },
  {
    "id": "7d4eb6cc-cc06-43db-b0dd-10195899f4da",
    "name": "Ga Pontoon",
    "location": {
      "country": "Australia",
      "region": "Great Barrier Reef, Queensland",
      "ocean": [
        "Pacific Ocean",
        "Coral Sea"
      ]
    },
    "coordinates": {
      "lat": "-16.422130874629737",
      "lng": "145.99461078643802"
    },
    "additionalInfo": {}
  },
  {
    "id": "7d5993bf-eba5-4d60-8a24-a2cce026256d",
    "name": "Second Point",
    "location": {
      "country": "Australia",
      "region": "Queensland, Australia",
      "ocean": [
        "Pacific Ocean",
        "Coral Sea"
      ]
    },
    "coordinates": {
      "lat": "-23.431670289022506",
      "lng": "151.96353435516357"
    },
    "additionalInfo": {}
  },
  {
    "id": "7da24f7d-c01f-47bf-9ab7-37122d5d9e73",
    "name": "Wavebreak Island, Gold Coast",
    "location": {
      "country": "Australia",
      "region": "Gold Coast, Queensland",
      "ocean": [
        "Pacific Ocean",
        "Tasman Sea"
      ]
    },
    "coordinates": {
      "lat": "-27.93185532387161",
      "lng": "153.41913700103763"
    },
    "additionalInfo": {}
  },
  {
    "id": "7e8e8c31-7b31-45bd-bca8-c7810873b186",
    "name": "Big Seal Rock",
    "location": {
      "country": "Australia",
      "region": "Seal Rocks, New South Wales",
      "ocean": [
        "Pacific Ocean",
        "Tasman Sea"
      ]
    },
    "coordinates": {
      "lat": "-32.463751839484445",
      "lng": "152.5529766082764"
    },
    "additionalInfo": {}
  },
  {
    "id": "7ee8b430-ef57-43c4-bc9d-1f40d4e5605b",
    "name": "Cabbage Tree Island Trawler",
    "location": {
      "country": "Australia",
      "region": "New South Wales, Australia",
      "ocean": [
        "Pacific Ocean",
        "Tasman Sea"
      ]
    },
    "coordinates": {
      "lat": "-32.68831974871679",
      "lng": "152.22270011901858"
    },
    "additionalInfo": {}
  },
  {
    "id": "7ef036c8-f2c4-413f-92e9-a51efa3ed9e9",
    "name": "Looking Glass",
    "location": {
      "country": "Australia",
      "region": "Broughton Island, New South Wales",
      "ocean": [
        "Pacific Ocean",
        "Tasman Sea"
      ]
    },
    "coordinates": {
      "lat": "-32.62864569134334",
      "lng": "152.31806337833407"
    },
    "additionalInfo": {}
  },
  {
    "id": "80b17da4-d292-4da5-a289-58008509442a",
    "name": "Fitzroy Island",
    "location": {
      "country": "Australia",
      "region": "Great Barrier Reef, Queensland",
      "ocean": [
        "Pacific Ocean",
        "Coral Sea"
      ]
    },
    "coordinates": {
      "lat": "-16.93661696805878",
      "lng": "145.96984863281253"
    },
    "additionalInfo": {}
  },
  {
    "id": "80b8975e-5c11-49d6-96b1-fdc079a678de",
    "name": "The Gap",
    "location": {
      "country": "Australia",
      "region": "Sydney, New South Wales",
      "ocean": [
        "Pacific Ocean",
        "Tasman Sea"
      ]
    },
    "coordinates": {
      "lat": "-33.843152246793764",
      "lng": "151.2878751754761"
    },
    "additionalInfo": {}
  },
  {
    "id": "81f53354-a7c0-4785-bc0e-f069f05d8f79",
    "name": "Coral Cascades",
    "location": {
      "country": "Australia",
      "region": "Queensland, Australia",
      "ocean": [
        "Pacific Ocean",
        "Coral Sea"
      ]
    },
    "coordinates": {
      "lat": "-23.432615317534292",
      "lng": "151.92995309829715"
    },
    "additionalInfo": {}
  },
  {
    "id": "8227c59b-bb8d-482c-a1af-25127e07ff7f",
    "name": "Ex Hmas Adelaide",
    "location": {
      "country": "Australia",
      "region": "North Avoca, New South Wales",
      "ocean": [
        "Pacific Ocean",
        "Tasman Sea"
      ]
    },
    "coordinates": {
      "lat": "-33.456078429467965",
      "lng": "151.45597457885745"
    },
    "additionalInfo": {}
  },
  {
    "id": "82bb13cb-0862-40b8-89a0-05ec624b50fe",
    "name": "Trigg Point",
    "location": {
      "country": "Australia",
      "region": "Perth, Western Australia",
      "ocean": [
        "Indian Ocean"
      ]
    },
    "coordinates": {
      "lat": "-31.875808372704054",
      "lng": "115.7457733154297"
    },
    "additionalInfo": {}
  },
  {
    "id": "82c322b0-7af4-4ea5-b4a3-e440f4e3f1ea",
    "name": "Dac Reef",
    "location": {
      "country": "Australia",
      "region": "Batemans Bay, New South Wales",
      "ocean": [
        "Pacific Ocean",
        "Tasman Sea"
      ]
    },
    "coordinates": {
      "lat": "-35.77646085576334",
      "lng": "150.32524108886722"
    },
    "additionalInfo": {}
  },
  {
    "id": "82c8a2fb-e2aa-43d2-a8df-d0d4f6b4b8cd",
    "name": "Lee Breakwater",
    "location": {
      "country": "Australia",
      "region": "South Australia, Australia",
      "ocean": [
        "Indian Ocean"
      ]
    },
    "coordinates": {
      "lat": "-38.344043887065354",
      "lng": "141.61415576934817"
    },
    "additionalInfo": {}
  },
  {
    "id": "8342405c-6709-45c2-92c3-fec0efb4a47e",
    "name": "Currajong",
    "location": {
      "country": "Australia",
      "region": "Sydney, New South Wales",
      "ocean": [
        "Pacific Ocean",
        "Tasman Sea"
      ]
    },
    "coordinates": {
      "lat": "-33.8536665780379",
      "lng": "151.2496376037598"
    },
    "additionalInfo": {}
  },
  {
    "id": "8426d9f1-e010-4c94-92f5-abe3edf7a999",
    "name": "Shark Pools",
    "location": {
      "country": "Australia",
      "region": "Queensland, Australia",
      "ocean": [
        "Pacific Ocean",
        "Coral Sea"
      ]
    },
    "coordinates": {
      "lat": "-24.10801821145026",
      "lng": "152.71386623382568"
    },
    "additionalInfo": {}
  },
  {
    "id": "84753830-8b48-45ee-b7ed-0795d413699d",
    "name": "Brain Coral Bommie",
    "location": {
      "country": "Australia",
      "region": "Queensland, Australia",
      "ocean": [
        "Pacific Ocean",
        "Coral Sea"
      ]
    },
    "coordinates": {
      "lat": "-24.10817489991531",
      "lng": "152.711935043335"
    },
    "additionalInfo": {}
  },
  {
    "id": "847f23f9-b623-4cdc-b64f-62e62a469b23",
    "name": "Mantis Reef - North Wall",
    "location": {
      "country": "Australia",
      "region": "Great Barrier Reef, Queensland",
      "ocean": [
        "Pacific Ocean",
        "Coral Sea"
      ]
    },
    "coordinates": {
      "lat": "-12.193730759218626",
      "lng": "143.9524841308594"
    },
    "additionalInfo": {}
  },
  {
    "id": "84fc66bf-04eb-4fc6-b09a-6855f0441ab3",
    "name": "St. Helens Rocks",
    "location": {
      "country": "Australia",
      "region": "Tasmania, Australia",
      "ocean": [
        "Pacific Ocean",
        "Tasman Sea"
      ]
    },
    "coordinates": {
      "lat": "-41.277806467381836",
      "lng": "148.38272094726565"
    },
    "additionalInfo": {}
  },
  {
    "id": "8501ea18-c2ae-4fb5-84db-f4cea1e7b47c",
    "name": "Shelly Beach",
    "location": {
      "country": "Australia",
      "region": "Sydney, New South Wales",
      "ocean": [
        "Pacific Ocean",
        "Tasman Sea"
      ]
    },
    "coordinates": {
      "lat": "-33.80053814424961",
      "lng": "151.2972414493561"
    },
    "additionalInfo": {}
  },
  {
    "id": "850d107a-ff7e-4685-a69e-2c0281e2ad0f",
    "name": "Pete&#039;s Misery",
    "location": {
      "country": "Australia",
      "region": "Beecroft Peninsula, New South Wales",
      "ocean": [
        "Pacific Ocean",
        "Tasman Sea"
      ]
    },
    "coordinates": {
      "lat": "-35.07861745562976",
      "lng": "150.78864097595218"
    },
    "additionalInfo": {}
  },
  {
    "id": "86342847-fc38-48a9-8011-bbdb501edc45",
    "name": "Little Dac Reef",
    "location": {
      "country": "Australia",
      "region": "Batemans Bay, New South Wales",
      "ocean": [
        "Pacific Ocean",
        "Tasman Sea"
      ]
    },
    "coordinates": {
      "lat": "-35.70818948721093",
      "lng": "150.29777526855472"
    },
    "additionalInfo": {}
  },
  {
    "id": "863c990c-6c75-444b-8e3b-7f10206b8b3c",
    "name": "Hicks Reef",
    "location": {
      "country": "Australia",
      "region": "Great Barrier Reef, Queensland",
      "ocean": [
        "Pacific Ocean",
        "Coral Sea"
      ]
    },
    "coordinates": {
      "lat": "-14.418720368284717",
      "lng": "145.50224304199222"
    },
    "additionalInfo": {}
  },
  {
    "id": "8812cd7a-ee9d-4981-a87c-d1d8e1201a3f",
    "name": "The Chimney",
    "location": {
      "country": "Australia",
      "region": "Townsville, Queensland",
      "ocean": [
        "Pacific Ocean",
        "Coral Sea"
      ]
    },
    "coordinates": {
      "lat": "-19.824849731251813",
      "lng": "149.07348632812503"
    },
    "additionalInfo": {}
  },
  {
    "id": "893eb374-6163-4355-8b06-c65c3c9cfc2d",
    "name": "The Canyon",
    "location": {
      "country": "Australia",
      "region": "Gold Coast, Queensland",
      "ocean": [
        "Pacific Ocean",
        "Tasman Sea"
      ]
    },
    "coordinates": {
      "lat": "-28.04001608920799",
      "lng": "153.48629951477054"
    },
    "additionalInfo": {}
  },