[
  {
    "id": "00ccb32b-33bf-4550-8d15-59fcf9765677",
    "name": "Las Cuevas",
    "location": {
      "country": "Colombia",
      "region": "San Andrés, San Andrés And Providencia",
      "ocean": [
        "Atlantic Ocean",
        "Caribbean Sea"
      ]
    },
    "coordinates": {
      "lat": "12.520903344944074",
      "lng": "-81.72939777374269"
    },
    "additionalInfo": {}
  },
  {
    "id": "02d783df-84e9-47e4-8c4c-01985bf1b434",
    "name": "La Catedral",
    "location": {
      "country": "Colombia",
      "region": "Malpelo Island, Colombia",
      "ocean": [
        "Pacific Ocean"
      ]
    },
    "coordinates": {
      "lat": "4.013332845118249",
      "lng": "-81.60648822784424"
    },
    "additionalInfo": {}
  },
  {
    "id": "03346e25-c23c-4c52-94e6-e5ab43bce4db",
    "name": "Barbujas",
    "location": {
      "country": "Colombia",
      "region": "Fuerte Island, Colombia",
      "ocean": [
        "Atlantic Ocean",
        "Caribbean Sea"
      ]
    },
    "coordinates": {
      "lat": "9.40757292553148",
      "lng": "-76.20310306549074"
    },
    "additionalInfo": {}
  },
  {
    "id": "0339daaa-361f-458c-b629-4e9e63bb4ff0",
    "name": "La Catedral",
    "location": {
      "country": "Colombia",
      "region": "Gorgona Island, Colombia",
      "ocean": [
        "Pacific Ocean"
      ]
    },
    "coordinates": {
      "lat": "2.946341028292756",
      "lng": "-78.21102619171142"
    },
    "additionalInfo": {}
  },
  {
    "id": "042db02d-67eb-4a1f-b409-31d7ef655e3f",
    "name": "Los Dos Morritos",
    "location": {
      "country": "Colombia",
      "region": "Colombia, South America",
      "ocean": [
        "Atlantic Ocean",
        "Caribbean Sea"
      ]
    },
    "coordinates": {
      "lat": "11.324498046895162",
      "lng": "-74.19921398162843"
    },
    "additionalInfo": {}
  },
  {
    "id": "045394f7-1dc9-44dc-a3d6-2c8f36ba0cda",
    "name": "Aquamarina",
    "location": {
      "country": "Colombia",
      "region": "Malpelo Island, Colombia",
      "ocean": [
        "Pacific Ocean"
      ]
    },
    "coordinates": {
      "lat": "4.004984831646686",
      "lng": "-81.60895586013794"
    },
    "additionalInfo": {}
  },
  {
    "id": "065232e5-b95e-43ce-96f0-560fa241af37",
    "name": "Felipe&#039;s Place",
    "location": {
      "country": "Colombia",
      "region": "Providencia, San Andrés And Providencia",
      "ocean": [
        "Atlantic Ocean",
        "Caribbean Sea"
      ]
    },
    "coordinates": {
      "lat": "13.368744280588869",
      "lng": "-81.39753341674806"
    },
    "additionalInfo": {}
  },
  {
    "id": "089ba305-67da-4a21-9ded-8391d2c3d843",
    "name": "El Acuario",
    "location": {
      "country": "Colombia",
      "region": "San Andrés, San Andrés And Providencia",
      "ocean": [
        "Atlantic Ocean",
        "Caribbean Sea"
      ]
    },
    "coordinates": {
      "lat": "12.552971733515385",
      "lng": "-81.68895006179811"
    },
    "additionalInfo": {}
  },
  {
    "id": "0923846b-7a3d-4840-a3ab-e2162fc6d21a",
    "name": "Arc Quindio",
    "location": {
      "country": "Colombia",
      "region": "Cartagena, Colombia",
      "ocean": [
        "Atlantic Ocean",
        "Caribbean Sea"
      ]
    },
    "coordinates": {
      "lat": "10.261293084423635",
      "lng": "-75.60039997100831"
    },
    "additionalInfo": {}
  },
  {
    "id": "0aa944b1-c6aa-47b6-9c57-fbf7125648a0",
    "name": "Roca De Morrosquillo",
    "location": {
      "country": "Colombia",
      "region": "Colombia, South America",
      "ocean": [
        "Atlantic Ocean",
        "Caribbean Sea"
      ]
    },
    "coordinates": {
      "lat": "9.613274723220076",
      "lng": "-75.80961227416994"
    },
    "additionalInfo": {}
  },
  {
    "id": "0bb49a5d-2fbf-4ae3-8ebd-34b74b89909a",
    "name": "Yesbi",
    "location": {
      "country": "Colombia",
      "region": "Fuerte Island, Colombia",
      "ocean": [
        "Atlantic Ocean",
        "Caribbean Sea"
      ]
    },
    "coordinates": {
      "lat": "9.37399713896704",
      "lng": "-76.1846709251404"
    },
    "additionalInfo": {}
  },
  {
    "id": "0bbdd475-e1d4-4d0d-92e2-3b7ba2f8bef2",
    "name": "Cuevitas Isla Palma",
    "location": {
      "country": "Colombia",
      "region": "Salamanquilla Island, Colombia",
      "ocean": [
        "Atlantic Ocean",
        "Caribbean Sea"
      ]
    },
    "coordinates": {
      "lat": "9.766919362353594",
      "lng": "-75.74652671813966"
    },
    "additionalInfo": {}
  },
  {
    "id": "0bcbc75b-c973-4475-ad11-25451b83e018",
    "name": "David",
    "location": {
      "country": "Colombia",
      "region": "Malpelo Island, Colombia",
      "ocean": [
        "Pacific Ocean"
      ]
    },
    "coordinates": {
      "lat": "3.997642790434523",
      "lng": "-81.61375164985658"
    },
    "additionalInfo": {}
  },
  {
    "id": "0eb59fce-9a64-48bb-aef9-d3deaf1c3f04",
    "name": "The Umbrella",
    "location": {
      "country": "Colombia",
      "region": "Providencia, San Andrés And Providencia",
      "ocean": [
        "Atlantic Ocean",
        "Caribbean Sea"
      ]
    },
    "coordinates": {
      "lat": "13.341979487774546",
      "lng": "-81.4140558242798"
    },
    "additionalInfo": {}
  },
  {
    "id": "109a6f32-fe7e-438a-89f8-f165294f7e65",
    "name": "White Shoal",
    "location": {
      "country": "Colombia",
      "region": "Providencia, San Andrés And Providencia",
      "ocean": [
        "Atlantic Ocean",
        "Caribbean Sea"
      ]
    },
    "coordinates": {
      "lat": "13.366406133120355",
      "lng": "-81.3482666015625"
    },
    "additionalInfo": {}
  },
  {
    "id": "142b41cb-73fa-47b9-a51f-c5a50cac6765",
    "name": "Snaper Sure",
    "location": {
      "country": "Colombia",
      "region": "Providencia, San Andrés And Providencia",
      "ocean": [
        "Atlantic Ocean",
        "Caribbean Sea"
      ]
    },
    "coordinates": {
      "lat": "13.31888672970631",
      "lng": "-81.40886306762697"
    },
    "additionalInfo": {}
  },
  {
    "id": "17265bc9-f988-454b-a36d-083da833d423",
    "name": "Grieta De Narza",
    "location": {
      "country": "Colombia",
      "region": "Colombia, South America",
      "ocean": [
        "Atlantic Ocean",
        "Caribbean Sea",
        "Gulf Of Uraba"
      ]
    },
    "coordinates": {
      "lat": "8.645856259968525",
      "lng": "-77.25311279296876"
    },
    "additionalInfo": {}
  },
  {
    "id": "175f0f9e-f613-49d1-aeb4-34baf112b51e",
    "name": "La Tiburonera",
    "location": {
      "country": "Colombia",
      "region": "Gorgona Island, Colombia",
      "ocean": [
        "Pacific Ocean"
      ]
    },
    "coordinates": {
      "lat": "3.00192725526636",
      "lng": "-78.16339015960695"
    },
    "additionalInfo": {}
  },
  {
    "id": "17a4b80c-9f5e-4f5a-b77a-0c0f00597b2c",
    "name": "Punta Gigantes",
    "location": {
      "country": "Colombia",
      "region": "Cartagena, Colombia",
      "ocean": [
        "Atlantic Ocean",
        "Caribbean Sea"
      ]
    },
    "coordinates": {
      "lat": "10.27911319482152",
      "lng": "-75.7071304321289"
    },
    "additionalInfo": {}
  },
  {
    "id": "18049a4d-1335-450c-9051-10679ffd0235",
    "name": "El Socorro",
    "location": {
      "country": "Colombia",
      "region": "Fuerte Island, Colombia",
      "ocean": [
        "Atlantic Ocean",
        "Caribbean Sea"
      ]
    },
    "coordinates": {
      "lat": "9.39597207597386",
      "lng": "-76.18836164474487"
    },
    "additionalInfo": {}
  },
  {
    "id": "18bd148b-a2e6-40fb-8c69-b08e36c03397",
    "name": "Raya Y Estrella",
    "location": {
      "country": "Colombia",
      "region": "Salamanquilla Island, Colombia",
      "ocean": [
        "Atlantic Ocean",
        "Caribbean Sea"
      ]
    },
    "coordinates": {
      "lat": "9.74323425582488",
      "lng": "-75.77356338500978"
    },
    "additionalInfo": {}
  },
  {
    "id": "195a34fa-70e3-467d-bc67-a103446be14c",
    "name": "La Plaza Del Toros",
    "location": {
      "country": "Colombia",
      "region": "San Andrés, San Andrés And Providencia",
      "ocean": [
        "Atlantic Ocean",
        "Caribbean Sea"
      ]
    },
    "coordinates": {
      "lat": "12.591999287692758",
      "lng": "-81.7133152484894"
    },
    "additionalInfo": {}
  },
  {
    "id": "19ebb342-da4e-4129-b508-2a1f69050108",
    "name": "La Piramide - Palacio De Las Rayas - Bajo Camilo",
    "location": {
      "country": "Colombia",
      "region": "San Andrés, San Andrés And Providencia",
      "ocean": [
        "Atlantic Ocean",
        "Caribbean Sea"
      ]
    },
    "coordinates": {
      "lat": "12.583716768870602",
      "lng": "-81.68586015701295"
    },
    "additionalInfo": {}
  },
  {
    "id": "1c1b8d2c-4d34-4324-9ec6-8c995a497cec",
    "name": "Bajo Alicia",
    "location": {
      "country": "Colombia",
      "region": "Fuerte Island, Colombia",
      "ocean": [
        "Atlantic Ocean",
        "Caribbean Sea"
      ]
    },
    "coordinates": {
      "lat": "9.393516371824855",
      "lng": "-76.17147445678712"
    },
    "additionalInfo": {}
  },
  {
    "id": "1c30eeb2-c1e2-4101-afee-30c04fd3d9f1",
    "name": "Villa Erika",
    "location": {
      "country": "Colombia",
      "region": "San Andrés, San Andrés And Providencia",
      "ocean": [
        "Atlantic Ocean",
        "Caribbean Sea"
      ]
    },
    "coordinates": {
      "lat": "12.50724531539185",
      "lng": "-81.72987520694733"
    },
    "additionalInfo": {}
  },
  {
    "id": "1cbfd918-eb62-463b-8bbd-9c301af5c478",
    "name": "Cables",
    "location": {
      "country": "Colombia",
      "region": "San Andrés, San Andrés And Providencia",
      "ocean": [
        "Atlantic Ocean",
        "Caribbean Sea"
      ]
    },
    "coordinates": {
      "lat": "12.533785639664545",
      "lng": "-81.69650316238405"
    },
    "additionalInfo": {}
  },
  {
    "id": "1e0e0cae-22d0-4a70-8692-032e67379ca9",
    "name": "Fondo Loco",
    "location": {
      "country": "Colombia",
      "region": "Fuerte Island, Colombia",
      "ocean": [
        "Atlantic Ocean",
        "Caribbean Sea"
      ]
    },
    "coordinates": {
      "lat": "9.383227628990172",
      "lng": "-76.19230985641481"
    },
    "additionalInfo": {}
  },
  {
    "id": "1e9287a7-b4a8-4a3d-8b6f-2459fef1581e",
    "name": "Villa Rosa",
    "location": {
      "country": "Colombia",
      "region": "San Andrés, San Andrés And Providencia",
      "ocean": [
        "Atlantic Ocean",
        "Caribbean Sea"
      ]
    },
    "coordinates": {
      "lat": "12.53368090815643",
      "lng": "-81.73705816268922"
    },
    "additionalInfo": {}
  },
  {
    "id": "1efdc95c-7f3a-4370-a929-bfa9436629f5",
    "name": "Palma Sola",
    "location": {
      "country": "Colombia",
      "region": "Gorgona Island, Colombia",
      "ocean": [
        "Pacific Ocean"
      ]
    },
    "coordinates": {
      "lat": "2.9880416758506634",
      "lng": "-78.1895685195923"
    },
    "additionalInfo": {}
  },
  {
    "id": "1f723352-558e-4e81-b4d0-1864fe087242",
    "name": "Bajo Caldas",
    "location": {
      "country": "Colombia",
      "region": "Fuerte Island, Colombia",
      "ocean": [
        "Atlantic Ocean",
        "Caribbean Sea"
      ]
    },
    "coordinates": {
      "lat": "9.369127744846836",
      "lng": "-76.19391918182374"
    },
    "additionalInfo": {}
  },
  {
    "id": "1fa34092-c721-4d25-8c22-ff48d56e77ec",
    "name": "Trampa Tortuga",
    "location": {
      "country": "Colombia",
      "region": "San Andrés, San Andrés And Providencia",
      "ocean": [
        "Atlantic Ocean",
        "Caribbean Sea"
      ]
    },
    "coordinates": {
      "lat": "12.539315402836968",
      "lng": "-81.68259859085084"
    },
    "additionalInfo": {}
  },
  {
    "id": "214b9fc1-0ccc-4f39-a9b5-4b5e6bcc767b",
    "name": "Barco De San Martin De Pajarales",
    "location": {
      "country": "Colombia",
      "region": "Cartagena, Colombia",
      "ocean": [
        "Atlantic Ocean",
        "Caribbean Sea"
      ]
    },
    "coordinates": {
      "lat": "10.213570791008156",
      "lng": "-75.78678131103517"
    },
    "additionalInfo": {}
  },
  {
    "id": "223b8a0c-5fc1-4f93-9be4-2b84d72e9af8",
    "name": "El Velerito (Barquito De Nirvana)",
    "location": {
      "country": "Colombia",
      "region": "San Andrés, San Andrés And Providencia",
      "ocean": [
        "Atlantic Ocean",
        "Caribbean Sea"
      ]
    },
    "coordinates": {
      "lat": "12.504961924014818",
      "lng": "-81.73172056674959"
    },
    "additionalInfo": {}
  },
  {
    "id": "24c13a8c-1a1b-4955-8a86-711dee5627c5",
    "name": "Manta&#039;s Place",
    "location": {
      "country": "Colombia",
      "region": "Providencia, San Andrés And Providencia",
      "ocean": [
        "Atlantic Ocean",
        "Caribbean Sea"
      ]
    },
    "coordinates": {
      "lat": "13.305689878341333",
      "lng": "-81.38225555419923"
    },
    "additionalInfo": {}
  },
  {
    "id": "2569f977-d118-4f91-a120-ed2e9770954e",
    "name": "Palacio Rayas",
    "location": {
      "country": "Colombia",
      "region": "San Andrés, San Andrés And Providencia",
      "ocean": [
        "Atlantic Ocean",
        "Caribbean Sea"
      ]
    },
    "coordinates": {
      "lat": "12.58137122824567",
      "lng": "-81.68369293212892"
    },
    "additionalInfo": {}
  },
  {
    "id": "290519ea-a41e-413e-aa8c-899baf281f58",
    "name": "El Acuario",
    "location": {
      "country": "Colombia",
      "region": "Colombia, South America",
      "ocean": [
        "Atlantic Ocean",
        "Caribbean Sea",
        "Gulf Of Uraba"
      ]
    },
    "coordinates": {
      "lat": "8.613609852175768",
      "lng": "-77.29534149169923"
    },
    "additionalInfo": {}
  },
  {
    "id": "29feb911-10b3-44df-901b-b48981f0b20d",
    "name": "Bajo Migue",
    "location": {
      "country": "Colombia",
      "region": "Salamanquilla Island, Colombia",
      "ocean": [
        "Atlantic Ocean",
        "Caribbean Sea"
      ]
    },
    "coordinates": {
      "lat": "9.726992067938944",
      "lng": "-75.76498031616212"
    },
    "additionalInfo": {}
  },
  {
    "id": "2a3ff6c4-5294-42ab-b4f2-901fb5644e89",
    "name": "La Cara Del Fantasma",
    "location": {
      "country": "Colombia",
      "region": "Malpelo Island, Colombia",
      "ocean": [
        "Pacific Ocean"
      ]
    },
    "coordinates": {
      "lat": "4.006996924740877",
      "lng": "-81.60287261009218"
    },
    "additionalInfo": {}
  },
  {
    "id": "2c82e96e-ad2a-4576-a95d-8b004ec02e9b",
    "name": "Punta Norte Isla De Múcura",
    "location": {
      "country": "Colombia",
      "region": "San Bernardo Island, Colombia",
      "ocean": [
        "Atlantic Ocean",
        "Caribbean Sea"
      ]
    },
    "coordinates": {
      "lat": "9.781129617596255",
      "lng": "-75.87844848632814"
    },
    "additionalInfo": {}
  },
  {
    "id": "2cd0244f-dc27-4f8a-9a79-56fadf948a7b",
    "name": "Torin",
    "location": {
      "country": "Colombia",
      "region": "Colombia, South America",
      "ocean": [
        "Atlantic Ocean",
        "Caribbean Sea"
      ]
    },
    "coordinates": {
      "lat": "11.31048512504897",
      "lng": "-74.19011592864992"
    },
    "additionalInfo": {}
  },
  {
    "id": "2fd01bae-85b8-4338-bbd1-c5d2a817db35",
    "name": "El Arco Del Tropic",
    "location": {
      "country": "Colombia",
      "region": "Malpelo Island, Colombia",
      "ocean": [
        "Pacific Ocean"
      ]
    },
    "coordinates": {
      "lat": "4.0014743595110795",
      "lng": "-81.60361289978029"
    },
    "additionalInfo": {}
  },
  {
    "id": "33eeae4f-d135-480c-86fa-5e1043d49d93",
    "name": "El Arbol",
    "location": {
      "country": "Colombia",
      "region": "San Andrés, San Andrés And Providencia",
      "ocean": [
        "Atlantic Ocean",
        "Caribbean Sea"
      ]
    },
    "coordinates": {
      "lat": "12.590027753550485",
      "lng": "-81.71406219655182"
    },
    "additionalInfo": {}
  },
  {
    "id": "35035858-9844-4250-9f27-8f7f03bd3f72",
    "name": "Punta Brava",
    "location": {
      "country": "Colombia",
      "region": "Gorgona Island, Colombia",
      "ocean": [
        "Pacific Ocean"
      ]
    },
    "coordinates": {
      "lat": "2.9468124729569003",
      "lng": "-78.1771230697632"
    },
    "additionalInfo": {}
  },
  {
    "id": "35aa9d97-cd93-46d3-8b79-b25bd4bbcfd0",
    "name": "Bajo Salmedina",
    "location": {
      "country": "Colombia",
      "region": "Cartagena, Colombia",
      "ocean": [
        "Atlantic Ocean",
        "Caribbean Sea"
      ]
    },
    "coordinates": {
      "lat": "10.342615544573404",
      "lng": "-75.67897796630861"
    },
    "additionalInfo": {}
  },
  {
    "id": "36465315-3a21-4cde-a572-62f248ae1fc9",
    "name": "Bajo Bushnell",
    "location": {
      "country": "Colombia",
      "region": "Fuerte Island, Colombia",
      "ocean": [
        "Atlantic Ocean",
        "Caribbean Sea"
      ]
    },
    "coordinates": {
      "lat": "9.411215197228035",
      "lng": "-76.36131287610625"
    },
    "additionalInfo": {}
  },
  {
    "id": "37319b4c-9517-4d54-8ce1-a4529deb9a6c",
    "name": "Canal Del Ingles",
    "location": {
      "country": "Colombia",
      "region": "Fuerte Island, Colombia",
      "ocean": [
        "Atlantic Ocean",
        "Caribbean Sea"
      ]
    },
    "coordinates": {
      "lat": "9.397496297375525",
      "lng": "-76.16656064987184"
    },
    "additionalInfo": {}
  },
  {
    "id": "383143ee-9dba-4bf0-ba49-6c9b2c8ac0aa",
    "name": "El Mirador",
    "location": {
      "country": "Colombia",
      "region": "Malpelo Island, Colombia",
      "ocean": [
        "Pacific Ocean"
      ]
    },
    "coordinates": {
      "lat": "4.004449699671677",
      "lng": "-81.60966396331789"
    },
    "additionalInfo": {}
  },
  {
    "id": "39b79930-29f6-42a8-9e99-8e58e797b9c7",
    "name": "Bajo El Toro",
    "location": {
      "country": "Colombia",
      "region": "Colombia, South America",
      "ocean": [
        "Atlantic Ocean",
        "Caribbean Sea",
        "Gulf Of Uraba"
      ]
    },
    "coordinates": {
      "lat": "8.56676280695425",
      "lng": "-77.22959518432619"
    },
    "additionalInfo": {}
  },
  {
    "id": "3ad631b9-9ae2-4b14-b3c7-257c358d1bbf",
    "name": "Laguna De Tintipan",
    "location": {
      "country": "Colombia",
      "region": "San Bernardo Island, Colombia",
      "ocean": [
        "Atlantic Ocean",
        "Caribbean Sea"
      ]
    },
    "coordinates": {
      "lat": "9.802105550419736",
      "lng": "-75.87175369262697"
    },
    "additionalInfo": {}
  },
  {
    "id": "3b1682de-37c3-453c-b50e-27453d227bb5",
    "name": "Los Tres Mosqueteros",
    "location": {
      "country": "Colombia",
      "region": "Malpelo Island, Colombia",
      "ocean": [
        "Pacific Ocean"
      ]
    },
    "coordinates": {
      "lat": "4.01495962755744",
      "lng": "-81.6076683998108"
    },
    "additionalInfo": {}
  },
  {
    "id": "3b40ccc4-0995-48a3-a5e1-7f47f1c4fc9c",
    "name": "Dedos De Morgan",
    "location": {
      "country": "Colombia",
      "region": "San Andrés, San Andrés And Providencia",
      "ocean": [
        "Atlantic Ocean",
        "Caribbean Sea"
      ]
    },
    "coordinates": {
      "lat": "12.543420756298609",
      "lng": "-81.734676361084"
    },
    "additionalInfo": {}
  },
  {
    "id": "3dfb9502-b902-4966-ab7e-a0e89da41443",
    "name": "Bajo Del Monstruo",
    "location": {
      "country": "Colombia",
      "region": "Malpelo Island, Colombia",
      "ocean": [
        "Pacific Ocean"
      ]
    },
    "coordinates": {
      "lat": "4.00881636636245",
      "lng": "-81.60119891166688"
    },
    "additionalInfo": {}
  },
  {
    "id": "3e97839d-19ee-4760-9b64-9e6a90fffffd",
    "name": "La Hojuela Isla Múcura",
    "location": {
      "country": "Colombia",
      "region": "San Bernardo Island, Colombia",
      "ocean": [
        "Atlantic Ocean",
        "Caribbean Sea"
      ]
    },
    "coordinates": {
      "lat": "9.786881214900701",
      "lng": "-75.86814880371095"
    },
    "additionalInfo": {}
  },
  {
    "id": "3f0a5366-7fb8-4b19-abe1-9d0ee0e9e4a5",
    "name": "La Rocosa",
    "location": {
      "country": "Colombia",
      "region": "San Andrés, San Andrés And Providencia",
      "ocean": [
        "Atlantic Ocean",
        "Caribbean Sea"
      ]
    },
    "coordinates": {
      "lat": "12.58832401840631",
      "lng": "-81.71701669692995"
    },
    "additionalInfo": {}
  },
  {
    "id": "40079c6c-504a-46f9-949c-a94d4722d296",
    "name": "La Puerta Del Cielo / El Tunel De La Chupadera",
    "location": {
      "country": "Colombia",
      "region": "Malpelo Island, Colombia",
      "ocean": [
        "Pacific Ocean"
      ]
    },
    "coordinates": {
      "lat": "4.000982035996076",
      "lng": "-81.61156296730043"
    },
    "additionalInfo": {}
  },
  {
    "id": "415f953d-1f99-4605-a26c-867a45a1a827",
    "name": "Plaza De Toros",
    "location": {
      "country": "Colombia",
      "region": "San Andrés, San Andrés And Providencia",
      "ocean": [
        "Atlantic Ocean",
        "Caribbean Sea"
      ]
    },
    "coordinates": {
      "lat": "12.59210989292696",
      "lng": "-81.71104115433991"
    },
    "additionalInfo": {}
  },
  {
    "id": "4484aad7-5fa2-43bc-b881-a12b48aa12fa",
    "name": "El Acuario",
    "location": {
      "country": "Colombia",
      "region": "Malpelo Island, Colombia",
      "ocean": [
        "Pacific Ocean"
      ]
    },
    "coordinates": {
      "lat": "4.013568300671896",
      "lng": "-81.60956740379335"
    },
    "additionalInfo": {}
  },
  {
    "id": "485b73e7-ce99-4a14-914f-35506aadd984",
    "name": "Bajo Los Venados",
    "location": {
      "country": "Colombia",
      "region": "Fuerte Island, Colombia",
      "ocean": [
        "Atlantic Ocean",
        "Caribbean Sea"
      ]
    },
    "coordinates": {
      "lat": "9.387080650767016",
      "lng": "-76.17115259170534"
    },
    "additionalInfo": {}
  },
  {
    "id": "4a0285dd-830b-42bb-8e79-5c0a1a5328e8",
    "name": "Acuario",
    "location": {
      "country": "Colombia",
      "region": "Gorgona Island, Colombia",
      "ocean": [
        "Pacific Ocean"
      ]
    },
    "coordinates": {
      "lat": "2.986241680455414",
      "lng": "-78.16845417022705"
    },
    "additionalInfo": {}
  },
  {
    "id": "4d77a906-b4d6-46a1-b3e8-2e0d0bf4980f",
    "name": "Cantil De Los Recuerdos",
    "location": {
      "country": "Colombia",
      "region": "San Andrés, San Andrés And Providencia",
      "ocean": [
        "Atlantic Ocean",
        "Caribbean Sea"
      ]
    },
    "coordinates": {
      "lat": "12.581245573678803",
      "lng": "-81.72627568244936"
    },
    "additionalInfo": {}
  },
  {
    "id": "4e926a63-5bba-4240-9ac7-9edfb1713ac2",
    "name": "Playa Norte",
    "location": {
      "country": "Colombia",
      "region": "Fuerte Island, Colombia",
      "ocean": [
        "Atlantic Ocean",
        "Caribbean Sea"
      ]
    },
    "coordinates": {
      "lat": "9.39961326041122",
      "lng": "-76.18533611297609"
    },
    "additionalInfo": {}
  },
  {
    "id": "4f3f79e6-e407-4ab6-b6f5-27c039302cd8",
    "name": "Golfo De Morrosquillo",
    "location": {
      "country": "Colombia",
      "region": "Colombia, South America",
      "ocean": [
        "Atlantic Ocean",
        "Caribbean Sea"
      ]
    },
    "coordinates": {
      "lat": "9.654907854199024",
      "lng": "-75.6547737121582"
    },
    "additionalInfo": {}
  },
  {
    "id": "4fac5b10-398d-44da-919c-c080170f6885",
    "name": "El Faro",
    "location": {
      "country": "Colombia",
      "region": "San Andrés, San Andrés And Providencia",
      "ocean": [
        "Atlantic Ocean",
        "Caribbean Sea"
      ]
    },
    "coordinates": {
      "lat": "12.519541764002339",
      "lng": "-81.72944605350496"
    },
    "additionalInfo": {}
  },
  {
    "id": "4fe6a8ac-6727-49f3-a8ff-3882d3e1fb39",
    "name": "Arc Tolu Y Atlas",
    "location": {
      "country": "Colombia",
      "region": "Cartagena, Colombia",
      "ocean": [
        "Atlantic Ocean",
        "Caribbean Sea"
      ]
    },
    "coordinates": {
      "lat": "10.262559950066887",
      "lng": "-75.59997081756593"
    },
    "additionalInfo": {}
  },
  {
    "id": "5236c1f1-1e17-4caf-b59a-f0879f0b9790",
    "name": "Jardin De Las Esponjas",
    "location": {
      "country": "Colombia",
      "region": "San Andrés, San Andrés And Providencia",
      "ocean": [
        "Atlantic Ocean",
        "Caribbean Sea"
      ]
    },
    "coordinates": {
      "lat": "12.549243543347531",
      "lng": "-81.7331850528717"
    },
    "additionalInfo": {}
  },
  {
    "id": "52813d5e-b3f4-48a6-9f9e-cc364008c8aa",
    "name": "Galeon",
    "location": {
      "country": "Colombia",
      "region": "Providencia, San Andrés And Providencia",
      "ocean": [
        "Atlantic Ocean",
        "Caribbean Sea"
      ]
    },
    "coordinates": {
      "lat": "13.391289538468367",
      "lng": "-81.39530181884767"
    },
    "additionalInfo": {}
  },
  {
    "id": "53571043-43b7-4c40-9421-075d333880b6",
    "name": "El Mango",
    "location": {
      "country": "Colombia",
      "region": "Fuerte Island, Colombia",
      "ocean": [
        "Atlantic Ocean",
        "Caribbean Sea"
      ]
    },
    "coordinates": {
      "lat": "9.39084894931398",
      "lng": "-76.19351148605348"
    },
    "additionalInfo": {}
  },
  {
    "id": "55a06ceb-089d-4f51-8b71-f9607b2c3b1e",
    "name": "Bajo Del Bajo",
    "location": {
      "country": "Colombia",
      "region": "San Andrés, San Andrés And Providencia",
      "ocean": [
        "Atlantic Ocean",
        "Caribbean Sea"
      ]
    },
    "coordinates": {
      "lat": "12.59339189734066",
      "lng": "-81.70993566513063"
    },
    "additionalInfo": {}
  },
  {
    "id": "578dfcb6-5229-42f6-9655-46d64cc9a0ce",
    "name": "Cantil Punta Padi",
    "location": {
      "country": "Colombia",
      "region": "San Andrés, San Andrés And Providencia",
      "ocean": [
        "Atlantic Ocean",
        "Caribbean Sea"
      ]
    },
    "coordinates": {
      "lat": "12.53043421029691",
      "lng": "-81.73847436904909"
    },
    "additionalInfo": {}
  },
  {
    "id": "578e8a02-53b6-43f7-a382-2ee010fd89db",
    "name": "Cabo Corrientes",
    "location": {
      "country": "Colombia",
      "region": "Choco, Colombia",
      "ocean": [
        "Pacific Ocean"
      ]
    },
    "coordinates": {
      "lat": "5.464262612258378",
      "lng": "-77.61497497558594"
    },
    "additionalInfo": {}
  },
  {
    "id": "58919fa4-9c54-47fc-9d18-705b31f21e34",
    "name": "Bajo Del Junior",
    "location": {
      "country": "Colombia",
      "region": "Malpelo Island, Colombia",
      "ocean": [
        "Pacific Ocean"
      ]
    },
    "coordinates": {
      "lat": "3.9983705758830603",
      "lng": "-81.61160588264467"
    },
    "additionalInfo": {}
  },
  {
    "id": "595778e2-6a6e-4725-b1b9-ba5684392824",
    "name": "El Arrecife / El Altar De Virginia",
    "location": {
      "country": "Colombia",
      "region": "Malpelo Island, Colombia",
      "ocean": [
        "Pacific Ocean"
      ]
    },
    "coordinates": {
      "lat": "4.004899210554196",
      "lng": "-81.60360217094423"
    },
    "additionalInfo": {}
  },
  {
    "id": "595e0b8c-56ba-476f-ae8e-ecd4afaefb8f",
    "name": "Piedra Ahogada",
    "location": {
      "country": "Colombia",
      "region": "San Bernardo Island, Colombia",
      "ocean": [
        "Atlantic Ocean",
        "Caribbean Sea"
      ]
    },
    "coordinates": {
      "lat": "9.779776286116052",
      "lng": "-75.77356338500978"
    },
    "additionalInfo": {}
  },
  {
    "id": "59f617b6-1ff9-451d-8135-5877ee794656",
    "name": "Blue Wall (Blue Hole)",
    "location": {
      "country": "Colombia",
      "region": "San Andrés, San Andrés And Providencia",
      "ocean": [
        "Atlantic Ocean",
        "Caribbean Sea"
      ]
    },
    "coordinates": {
      "lat": "12.497420304519919",
      "lng": "-81.71555757522584"
    },
    "additionalInfo": {}
  },
  {
    "id": "5a85f09b-0ad5-4f9c-974d-780ee4b8c453",
    "name": "Bajo Mariajo",
    "location": {
      "country": "Colombia",
      "region": "Fuerte Island, Colombia",
      "ocean": [
        "Atlantic Ocean",
        "Caribbean Sea"
      ]
    },
    "coordinates": {
      "lat": "9.383693381150675",
      "lng": "-76.17432832717897"
    },
    "additionalInfo": {}
  },
  {
    "id": "5c307521-9b34-4c59-8fd8-dd28d680e120",
    "name": "Isla Aguja, Parque Tayrona",
    "location": {
      "country": "Colombia",
      "region": "Colombia, South America",
      "ocean": [
        "Atlantic Ocean",
        "Caribbean Sea"
      ]
    },
    "coordinates": {
      "lat": "11.313178352455907",
      "lng": "-74.19590950012208"
    },
    "additionalInfo": {}
  },
  {
    "id": "5cc8c8d7-d035-4c05-9440-fc090002d90e",
    "name": "West Point",
    "location": {
      "country": "Colombia",
      "region": "San Andrés, San Andrés And Providencia",
      "ocean": [
        "Atlantic Ocean",
        "Caribbean Sea"
      ]
    },
    "coordinates": {
      "lat": "12.495660561640005",
      "lng": "-81.73704743385316"
    },
    "additionalInfo": {}
  },
  {
    "id": "5d080195-0d34-46e9-ba57-a5744a17ba01",
    "name": "Little Reef",
    "location": {
      "country": "Colombia",
      "region": "San Andrés, San Andrés And Providencia",
      "ocean": [
        "Atlantic Ocean",
        "Caribbean Sea"
      ]
    },
    "coordinates": {
      "lat": "12.587737645786707",
      "lng": "-81.6915249824524"
    },
    "additionalInfo": {}
  },
  {
    "id": "5e13408d-0b28-499b-82a8-c5dafb86fd0c",
    "name": "Bajo Dulce",
    "location": {
      "country": "Colombia",
      "region": "Salamanquilla Island, Colombia",
      "ocean": [
        "Atlantic Ocean",
        "Caribbean Sea"
      ]
    },
    "coordinates": {
      "lat": "9.764212578257096",
      "lng": "-75.74953079223634"
    },
    "additionalInfo": {}
  },
  {
    "id": "5e733291-3f32-4465-862e-cc3413247df2",
    "name": "Coral View",
    "location": {
      "country": "Colombia",
      "region": "San Andrés, San Andrés And Providencia",
      "ocean": [
        "Atlantic Ocean",
        "Caribbean Sea"
      ]
    },
    "coordinates": {
      "lat": "12.492224838640468",
      "lng": "-81.7167592048645"
    },
    "additionalInfo": {}
  },
  {
    "id": "5f8f4372-5e3c-4429-9764-c5c0522aec85",
    "name": "El Viudo",
    "location": {
      "country": "Colombia",
      "region": "Gorgona Island, Colombia",
      "ocean": [
        "Pacific Ocean"
      ]
    },
    "coordinates": {
      "lat": "2.928125968243055",
      "lng": "-78.22149753570557"
    },
    "additionalInfo": {}
  },
  {
    "id": "607fc333-2fa9-4483-91a6-7c018ae49e21",
    "name": "Bajo Del Ancla",
    "location": {
      "country": "Colombia",
      "region": "Malpelo Island, Colombia",
      "ocean": [
        "Pacific Ocean"
      ]
    },
    "coordinates": {
      "lat": "4.010678614182031",
      "lng": "-81.6049647331238"
    },
    "additionalInfo": {}
  },
  {
    "id": "60818803-3aaf-4930-8dbf-139858d438a4",
    "name": "El Planchon",
    "location": {
      "country": "Colombia",
      "region": "Providencia, San Andrés And Providencia",
      "ocean": [
        "Atlantic Ocean",
        "Caribbean Sea"
      ]
    },
    "coordinates": {
      "lat": "13.363692183520932",
      "lng": "-81.4076614379883"
    },
    "additionalInfo": {}
  },
  {
    "id": "609ad2c5-4955-4f35-a65a-a89a00385972",
    "name": "Barco Hundido / Blue Diamond Wreck",
    "location": {
      "country": "Colombia",
      "region": "San Andrés, San Andrés And Providencia",
      "ocean": [
        "Atlantic Ocean",
        "Caribbean Sea"
      ]
    },
    "coordinates": {
      "lat": "12.535880260889021",
      "lng": "-81.7347836494446"
    },
    "additionalInfo": {}
  },
  {
    "id": "63c08302-68a4-4420-8724-ed57f7cff757",
    "name": "La Hojuela Isla Palma",
    "location": {
      "country": "Colombia",
      "region": "Salamanquilla Island, Colombia",
      "ocean": [
        "Atlantic Ocean",
        "Caribbean Sea"
      ]
    },
    "coordinates": {
      "lat": "9.727245858198042",
      "lng": "-75.7667398452759"
    },
    "additionalInfo": {}
  },
  {
    "id": "657fc272-a930-43e6-a139-5a60e8e576dd",
    "name": "Coquitos",
    "location": {
      "country": "Colombia",
      "region": "San Andrés, San Andrés And Providencia",
      "ocean": [
        "Atlantic Ocean",
        "Caribbean Sea"
      ]
    },
    "coordinates": {
      "lat": "12.505108564434495",
      "lng": "-81.73019707202911"
    },
    "additionalInfo": {}
  },
  {
    "id": "6a26f589-27d1-4d3c-9441-bb326f55b42d",
    "name": "West View",
    "location": {
      "country": "Colombia",
      "region": "San Andrés, San Andrés And Providencia",
      "ocean": [
        "Atlantic Ocean",
        "Caribbean Sea"
      ]
    },
    "coordinates": {
      "lat": "12.521741237336691",
      "lng": "-81.729274392128"
    },
    "additionalInfo": {}
  },
  {
    "id": "6add0bbe-ada7-46ff-983e-c95bbc0ff3d1",
    "name": "Juanchicho",
    "location": {
      "country": "Colombia",
      "region": "Gorgona Island, Colombia",
      "ocean": [
        "Pacific Ocean"
      ]
    },
    "coordinates": {
      "lat": "2.993184503566421",
      "lng": "-78.1844186782837"
    },
    "additionalInfo": {}
  },
  {
    "id": "6ea4f7aa-3db3-45f6-bcf0-5d905b08238f",
    "name": "La Pescera",
    "location": {
      "country": "Colombia",
      "region": "Colombia, South America",
      "ocean": [
        "Atlantic Ocean",
        "Caribbean Sea"
      ]
    },
    "coordinates": {
      "lat": "11.299711962269312",
      "lng": "-74.19687509536745"
    },
    "additionalInfo": {}
  },
  {
    "id": "701388d8-bd4e-46a3-b139-a7c96166d199",
    "name": "Pozos Ceycen",
    "location": {
      "country": "Colombia",
      "region": "Ceycen Island, Colombia",
      "ocean": [
        "Atlantic Ocean",
        "Caribbean Sea"
      ]
    },
    "coordinates": {
      "lat": "9.70059682975089",
      "lng": "-75.86042404174806"
    },
    "additionalInfo": {}
  },
  {
    "id": "7049e4af-b5c1-4aa4-96c6-c011c3d9237a",
    "name": "El Frances",
    "location": {
      "country": "Colombia",
      "region": "Providencia, San Andrés And Providencia",
      "ocean": [
        "Atlantic Ocean",
        "Caribbean Sea"
      ]
    },
    "coordinates": {
      "lat": "13.308446242156428",
      "lng": "-81.39289855957033"
    },
    "additionalInfo": {}
  },
  {
    "id": "738f13bb-54ed-41f5-b07a-29643c19479b",
    "name": "Rock Table (Meseta Pescador)",
    "location": {
      "country": "Colombia",
      "region": "San Andrés, San Andrés And Providencia",
      "ocean": [
        "Atlantic Ocean",
        "Caribbean Sea"
      ]
    },
    "coordinates": {
      "lat": "12.606752188960213",
      "lng": "-81.69916391372682"
    },
    "additionalInfo": {}
  },
  {
    "id": "74032709-17e3-47d5-a836-4f8810dbef8d",
    "name": "Los Recuerdos",
    "location": {
      "country": "Colombia",
      "region": "San Andrés, San Andrés And Providencia",
      "ocean": [
        "Atlantic Ocean",
        "Caribbean Sea"
      ]
    },
    "coordinates": {
      "lat": "12.581790076357699",
      "lng": "-81.72215580940248"
    },
    "additionalInfo": {}
  },
  {
    "id": "76b0965f-d3ca-4922-aa1b-9476704a14c0",
    "name": "Cantil De Nirvana",
    "location": {
      "country": "Colombia",
      "region": "San Andrés, San Andrés And Providencia",
      "ocean": [
        "Atlantic Ocean",
        "Caribbean Sea"
      ]
    },
    "coordinates": {
      "lat": "12.504501053582484",
      "lng": "-81.73354446887971"
    },
    "additionalInfo": {}
  },
  {
    "id": "76fac9e4-7ec3-4dce-bdb7-915c17432a84",
    "name": "La Torta",
    "location": {
      "country": "Colombia",
      "region": "Malpelo Island, Colombia",
      "ocean": [
        "Pacific Ocean"
      ]
    },
    "coordinates": {
      "lat": "4.000254252866697",
      "lng": "-81.60351634025575"
    },
    "additionalInfo": {}
  },
  {
    "id": "77225cb7-60b1-482d-b5c7-6cc976a70ac1",
    "name": "Blacknet Coral",
    "location": {
      "country": "Colombia",
      "region": "San Andrés, San Andrés And Providencia",
      "ocean": [
        "Atlantic Ocean",
        "Caribbean Sea"
      ]
    },
    "coordinates": {
      "lat": "12.481917395817266",
      "lng": "-81.72502040863039"
    },
    "additionalInfo": {}
  },
  {
    "id": "775f3efe-f0ea-4ea4-88f9-2b7a6020a264",
    "name": "Bajo Del Cholo",
    "location": {
      "country": "Colombia",
      "region": "Malpelo Island, Colombia",
      "ocean": [
        "Pacific Ocean"
      ]
    },
    "coordinates": {
      "lat": "4.011941515461005",
      "lng": "-81.60729289054872"
    },
    "additionalInfo": {}
  },
  {
    "id": "78158821-3e5e-4ee7-bbda-ed3470ea8811",
    "name": "La Parguera",
    "location": {
      "country": "Colombia",
      "region": "Gorgona Island, Colombia",
      "ocean": [
        "Pacific Ocean"
      ]
    },
    "coordinates": {
      "lat": "3.008355704542479",
      "lng": "-78.1681537628174"
    },
    "additionalInfo": {}
  },
  {
    "id": "7886ac7f-fe12-4292-988e-29e908995f05",
    "name": "Cantil Barco Hundido",
    "location": {
      "country": "Colombia",
      "region": "San Andrés, San Andrés And Providencia",
      "ocean": [
        "Atlantic Ocean",
        "Caribbean Sea"
      ]
    },
    "coordinates": {
      "lat": "12.540907282354576",
      "lng": "-81.73598527908327"
    },
    "additionalInfo": {}
  },
  {
    "id": "78c3d8c9-5f51-4ce7-a310-4021a6b0eb74",
    "name": "Vagamares",
    "location": {
      "country": "Colombia",
      "region": "Malpelo Island, Colombia",
      "ocean": [
        "Pacific Ocean"
      ]
    },
    "coordinates": {
      "lat": "4.000725171436003",
      "lng": "-81.60420298576356"
    },
    "additionalInfo": {}
  },
  {
    "id": "7a7a5018-3c3e-468c-9d77-0bdc7d143db6",
    "name": "Caribana",
    "location": {
      "country": "Colombia",
      "region": "Colombia, South America",
      "ocean": [
        "Atlantic Ocean",
        "Caribbean Sea"
      ]
    },
    "coordinates": {
      "lat": "9.672845748245463",
      "lng": "-75.84531784057617"
    },
    "additionalInfo": {}
  },
  {
    "id": "7bbd9608-a5bf-4515-a1f9-491db33807d4",
    "name": "Prinz August Wilhelm",
    "location": {
      "country": "Colombia",
      "region": "Tubara, Atlantico",
      "ocean": [
        "Atlantic Ocean",
        "Caribbean Sea"
      ]
    },
    "coordinates": {
      "lat": "10.98846376958637",
      "lng": "-74.98778343200685"
    },
    "additionalInfo": {}
  },
  {
    "id": "8114532e-3e19-43ef-99cc-978e165d5c83",
    "name": "El Coro",
    "location": {
      "country": "Colombia",
      "region": "Colombia, South America",
      "ocean": [
        "Atlantic Ocean",
        "Caribbean Sea"
      ]
    },
    "coordinates": {
      "lat": "11.317133984291342",
      "lng": "-74.18861389160158"
    },
    "additionalInfo": {}
  },
  {
    "id": "8572b5d7-fdea-4394-9833-be7fb0456f14",
    "name": "D&#039;artagnan",
    "location": {
      "country": "Colombia",
      "region": "Malpelo Island, Colombia",
      "ocean": [
        "Pacific Ocean"
      ]
    },
    "coordinates": {
      "lat": "4.012476642532717",
      "lng": "-81.6059195995331"
    },
    "additionalInfo": {}
  },
  {
    "id": "88d8be74-4bcc-4a6a-b97f-f2a3f06f4aad",
    "name": "Embalse Peñol-Guatapé",
    "location": {
      "country": "Colombia",
      "region": "Guatapé, Antioquia",
      "ocean": [
        "South America",
        "Colombia",
        "Antioquia",
        "Guatapé"
      ]
    },
    "coordinates": {
      "lat": "6.282879787692776",
      "lng": "-75.19626617431642"
    },
    "additionalInfo": {}
  },
  {
    "id": "897663f4-d4e5-4359-aabd-db55902f43d2",
    "name": "Wild Life",
    "location": {
      "country": "Colombia",
      "region": "San Andrés, San Andrés And Providencia",
      "ocean": [
        "Atlantic Ocean",
        "Caribbean Sea"
      ]
    },
    "coordinates": {
      "lat": "12.51505896983085",
      "lng": "-81.7327129840851"
    },
    "additionalInfo": {}
  },
  {
    "id": "8bc1ab8a-f7a3-4f3b-a0c7-e9b5ad144a4e",
    "name": "La Grieta",
    "location": {
      "country": "Colombia",
      "region": "Fuerte Island, Colombia",
      "ocean": [
        "Atlantic Ocean",
        "Caribbean Sea"
      ]
    },
    "coordinates": {
      "lat": "9.398131387645625",
      "lng": "-76.18301868438722"
    },
    "additionalInfo": {}
  },
  {
    "id": "8d3e11e5-4725-4db8-ba5a-20bb0de798d8",
    "name": "Bajo Burbujas",
    "location": {
      "country": "Colombia",
      "region": "Cartagena, Colombia",
      "ocean": [
        "Atlantic Ocean",
        "Caribbean Sea"
      ]
    },
    "coordinates": {
      "lat": "10.361528659180635",
      "lng": "-75.65494537353517"
    },
    "additionalInfo": {}
  },
  {
    "id": "8dc94b36-7da0-4cd0-a39f-5426be33a96a",
    "name": "Bushnell",
    "location": {
      "country": "Colombia",
      "region": "Fuerte Island, Colombia",
      "ocean": [
        "Atlantic Ocean",
        "Caribbean Sea"
      ]
    },
    "coordinates": {
      "lat": "9.407234220108485",
      "lng": "-76.21022701263429"
    },
    "additionalInfo": {}
  },
  {
    "id": "8e4a2abe-6eb0-4343-b4c7-24fb0d8fee79",
    "name": "Salomon",
    "location": {
      "country": "Colombia",
      "region": "Malpelo Island, Colombia",
      "ocean": [
        "Pacific Ocean"
      ]
    },
    "coordinates": {
      "lat": "3.997942466873925",
      "lng": "-81.61250710487367"
    },
    "additionalInfo": {}
  },
  {
    "id": "8ea2954a-08e1-4ca4-8892-766211e6c075",
    "name": "La Pared Del Tangon",
    "location": {
      "country": "Colombia",
      "region": "Malpelo Island, Colombia",
      "ocean": [
        "Pacific Ocean"
      ]
    },
    "coordinates": {
      "lat": "4.002758680331125",
      "lng": "-81.6031301021576"
    },
    "additionalInfo": {}
  },
  {
    "id": "8fafc6e4-b844-47bd-b9d2-5e1f5e46e0b4",
    "name": "Trilogia",
    "location": {
      "country": "Colombia",
      "region": "San Andrés, San Andrés And Providencia",
      "ocean": [
        "Atlantic Ocean",
        "Caribbean Sea"
      ]
    },
    "coordinates": {
      "lat": "12.583050692094734",
      "lng": "-81.68262004852296"
    },
    "additionalInfo": {}
  },
  {
    "id": "9108db28-74d7-4d11-9677-46650e6112ba",
    "name": "La Gringa",
    "location": {
      "country": "Colombia",
      "region": "Malpelo Island, Colombia",
      "ocean": [
        "Pacific Ocean"
      ]
    },
    "coordinates": {
      "lat": "3.994346342373127",
      "lng": "-81.61653578281404"
    },
    "additionalInfo": {}
  },
  {
    "id": "919e857f-c363-454b-b60d-ae357bf06483",
    "name": "Nautilus Isla Palma",
    "location": {
      "country": "Colombia",
      "region": "Salamanquilla Island, Colombia",
      "ocean": [
        "Atlantic Ocean",
        "Caribbean Sea"
      ]
    },
    "coordinates": {
      "lat": "9.73054511402834",
      "lng": "-75.76386451721193"
    },
    "additionalInfo": {}
  },
  {
    "id": "95dfa727-1eea-4ba3-829d-2e347368f08d",
    "name": "La Tiburonera",
    "location": {
      "country": "Colombia",
      "region": "Choco, Colombia",
      "ocean": [
        "Pacific Ocean"
      ]
    },
    "coordinates": {
      "lat": "6.525458832948296",
      "lng": "-77.46185302734376"
    },
    "additionalInfo": {}
  },
  {
    "id": "991d919b-d190-493c-95ee-383d2626b91b",
    "name": "Cantil De Tintipan",
    "location": {
      "country": "Colombia",
      "region": "San Bernardo Island, Colombia",
      "ocean": [
        "Atlantic Ocean",
        "Caribbean Sea"
      ]
    },
    "coordinates": {
      "lat": "9.790602783620052",
      "lng": "-75.82128524780275"
    },
    "additionalInfo": {}
  },
  {
    "id": "9a5fe2d2-bc66-470b-808f-b7fd855a8cb3",
    "name": "La Mina Del Diablo",
    "location": {
      "country": "Colombia",
      "region": "Choco, Colombia",
      "ocean": [
        "Pacific Ocean"
      ]
    },
    "coordinates": {
      "lat": "6.675519529024594",
      "lng": "-77.67402648925783"
    },
    "additionalInfo": {}
  },
  {
    "id": "9b49fdd7-1644-4e8c-98b4-7f7bb219e6a6",
    "name": "Rocky Point",
    "location": {
      "country": "Colombia",
      "region": "Providencia, San Andrés And Providencia",
      "ocean": [
        "Atlantic Ocean",
        "Caribbean Sea"
      ]
    },
    "coordinates": {
      "lat": "13.353921712134493",
      "lng": "-81.34976863861085"
    },
    "additionalInfo": {}
  },
  {
    "id": "9eb79636-63a1-4c4e-b09b-180f2ff702ff",
    "name": "Barco Hundido",
    "location": {
      "country": "Colombia",
      "region": "Colombia, South America",
      "ocean": [
        "Atlantic Ocean",
        "Caribbean Sea"
      ]
    },
    "coordinates": {
      "lat": "11.140676776401115",
      "lng": "-74.28096771240236"
    },
    "additionalInfo": {}
  },
  {
    "id": "a103d631-658a-466c-8037-9619b9c11a77",
    "name": "Las Pargos",
    "location": {
      "country": "Colombia",
      "region": "Fuerte Island, Colombia",
      "ocean": [
        "Atlantic Ocean",
        "Caribbean Sea"
      ]
    },
    "coordinates": {
      "lat": "9.394871245232991",
      "lng": "-76.19370460510255"
    },
    "additionalInfo": {}
  },
  {
    "id": "a12b7c0f-f384-44ae-9f8d-c2a8367eed74",
    "name": "Bajo La Cebolleta",
    "location": {
      "country": "Colombia",
      "region": "Fuerte Island, Colombia",
      "ocean": [
        "Atlantic Ocean",
        "Caribbean Sea"
      ]
    },
    "coordinates": {
      "lat": "9.390298526239421",
      "lng": "-76.17042303085329"
    },
    "additionalInfo": {}
  },
  {
    "id": "a33683cb-d2bf-435d-9c12-0fa9ec4d4430",
    "name": "Bajo Oeste",
    "location": {
      "country": "Colombia",
      "region": "Colombia, South America",
      "ocean": [
        "Atlantic Ocean",
        "Caribbean Sea"
      ]
    },
    "coordinates": {
      "lat": "9.647800122364272",
      "lng": "-75.76463699340822"
    },
    "additionalInfo": {}
  },
  {
    "id": "a42cec00-7d52-422d-afc8-3723d8ed5853",
    "name": "El Cebadero",
    "location": {
      "country": "Colombia",
      "region": "Fuerte Island, Colombia",
      "ocean": [
        "Atlantic Ocean",
        "Caribbean Sea"
      ]
    },
    "coordinates": {
      "lat": "9.401814888232867",
      "lng": "-76.18593692779541"
    },
    "additionalInfo": {}
  },
  {
    "id": "a71ee903-0b03-477f-bbbb-aee35329edb5",
    "name": "Rufino",
    "location": {
      "country": "Colombia",
      "region": "Colombia, South America",
      "ocean": [
        "Atlantic Ocean",
        "Caribbean Sea",
        "Gulf Of Uraba"
      ]
    },
    "coordinates": {
      "lat": "8.628884809720317",
      "lng": "-77.22719192504884"
    },
    "additionalInfo": {}
  },
  {
    "id": "a72cf7b4-6d55-4da3-8fee-cec3bf53b448",
    "name": "La Piscinita",
    "location": {
      "country": "Colombia",
      "region": "San Andrés, San Andrés And Providencia",
      "ocean": [
        "Atlantic Ocean",
        "Caribbean Sea"
      ]
    },
    "coordinates": {
      "lat": "12.509989548044475",
      "lng": "-81.73078179359437"
    },
    "additionalInfo": {}
  },
  {
    "id": "a7d89226-b72d-4018-82d1-f5f52e47d47f",
    "name": "Las Margaritas",
    "location": {
      "country": "Colombia",
      "region": "Providencia, San Andrés And Providencia",
      "ocean": [
        "Atlantic Ocean",
        "Caribbean Sea"
      ]
    },
    "coordinates": {
      "lat": "13.309239735016206",
      "lng": "-81.37041091918947"
    },
    "additionalInfo": {}
  },
  {
    "id": "a7f272ff-388c-4980-8a68-33021627eb23",
    "name": "El Acuario Decamerón Hotel",
    "location": {
      "country": "Colombia",
      "region": "Salamanquilla Island, Colombia",
      "ocean": [
        "Atlantic Ocean",
        "Caribbean Sea"
      ]
    },
    "coordinates": {
      "lat": "9.739342970277171",
      "lng": "-75.74472427368165"
    },
    "additionalInfo": {}
  },
  {
    "id": "a81d72a5-1aa6-4755-b950-681381107e47",
    "name": "Saul",
    "location": {
      "country": "Colombia",
      "region": "Malpelo Island, Colombia",
      "ocean": [
        "Pacific Ocean"
      ]
    },
    "coordinates": {
      "lat": "3.9984133867716856",
      "lng": "-81.6134297847748"
    },
    "additionalInfo": {}
  },
  {
    "id": "a90c3768-8173-4b4f-b42b-f89289a997b0",
    "name": "Piedra Bonita",
    "location": {
      "country": "Colombia",
      "region": "Choco, Colombia",
      "ocean": [
        "Pacific Ocean"
      ]
    },
    "coordinates": {
      "lat": "5.60915228207884",
      "lng": "-77.54905700683595"
    },
    "additionalInfo": {}
  },
  {
    "id": "aa7188a3-1e25-4340-a894-e5743fb69cd6",
    "name": "La Pared Del Resguardo",
    "location": {
      "country": "Colombia",
      "region": "Malpelo Island, Colombia",
      "ocean": [
        "Pacific Ocean"
      ]
    },
    "coordinates": {
      "lat": "4.000147225881367",
      "lng": "-81.60723924636842"
    },
    "additionalInfo": {}
  },
  {
    "id": "aa72b30b-9752-41d3-963b-9e1fc3db2c29",
    "name": "Montanita 2",
    "location": {
      "country": "Colombia",
      "region": "Gorgona Island, Colombia",
      "ocean": [
        "Pacific Ocean"
      ]
    },
    "coordinates": {
      "lat": "2.9555555923214163",
      "lng": "-78.20982456207277"
    },
    "additionalInfo": {}
  },
  {
    "id": "abe58b55-e4ef-4779-aeca-86f8ddb90c22",
    "name": "Punta Evans",
    "location": {
      "country": "Colombia",
      "region": "San Andrés, San Andrés And Providencia",
      "ocean": [
        "Atlantic Ocean",
        "Caribbean Sea"
      ]
    },
    "coordinates": {
      "lat": "12.561223827489602",
      "lng": "-81.73314213752748"
    },
    "additionalInfo": {}
  },
  {
    "id": "acacc356-98f9-4adf-ac47-bef9c62e18ec",
    "name": "Pena De Mora",
    "location": {
      "country": "Colombia",
      "region": "Gorgona Island, Colombia",
      "ocean": [
        "Pacific Ocean"
      ]
    },
    "coordinates": {
      "lat": "2.973813060411399",
      "lng": "-78.16828250885011"
    },
    "additionalInfo": {}
  },
  {
    "id": "afbccf11-e113-4265-a05a-09eb495df3c3",
    "name": "Piedra Redonda",
    "location": {
      "country": "Colombia",
      "region": "Gorgona Island, Colombia",
      "ocean": [
        "Pacific Ocean"
      ]
    },
    "coordinates": {
      "lat": "2.939783640913207",
      "lng": "-78.1881093978882"
    },
    "additionalInfo": {}
  },
  {
    "id": "afe20d11-a014-4304-9c38-0267ff631597",
    "name": "La Coca",
    "location": {
      "country": "Colombia",
      "region": "Cartagena, Colombia",
      "ocean": [
        "Atlantic Ocean",
        "Caribbean Sea"
      ]
    },
    "coordinates": {
      "lat": "10.181808266838273",
      "lng": "-75.83965301513673"
    },
    "additionalInfo": {}
  },
  {
    "id": "b03b0d2a-9d14-42cb-9589-99d3ff3c5a3a",
    "name": "La Nevera",
    "location": {
      "country": "Colombia",
      "region": "Malpelo Island, Colombia",
      "ocean": [
        "Pacific Ocean"
      ]
    },
    "coordinates": {
      "lat": "4.0031653815042025",
      "lng": "-81.61037206649782"
    },
    "additionalInfo": {}
  },
  {
    "id": "b0d4b802-6619-419b-90db-a6905347a402",
    "name": "La Montanita",
    "location": {
      "country": "Colombia",
      "region": "Cartagena, Colombia",
      "ocean": [
        "Atlantic Ocean",
        "Caribbean Sea"
      ]
    },
    "coordinates": {
      "lat": "10.273708148970899",
      "lng": "-75.64258575439453"
    },
    "additionalInfo": {}
  },
  {
    "id": "b1e805da-64ac-4700-95c3-75863be4936a",
    "name": "El Freezer",
    "location": {
      "country": "Colombia",
      "region": "Malpelo Island, Colombia",
      "ocean": [
        "Pacific Ocean"
      ]
    },
    "coordinates": {
      "lat": "4.007232382119932",
      "lng": "-81.60765767097475"
    },
    "additionalInfo": {}
  },
  {
    "id": "b2567e85-2ccd-4827-a48e-9cffe206064f",
    "name": "Calichan",
    "location": {
      "country": "Colombia",
      "region": "Colombia, South America",
      "ocean": [
        "Atlantic Ocean",
        "Caribbean Sea"
      ]
    },
    "coordinates": {
      "lat": "11.31319939319532",
      "lng": "-74.19479370117189"
    },
    "additionalInfo": {}
  },
  {
    "id": "b2a2eb97-d83f-4bc3-86d6-4331b89bc1f6",
    "name": "Pedro De Heredia",
    "location": {
      "country": "Colombia",
      "region": "Isla Tierrabomba, Cartagena",
      "ocean": [
        "Atlantic Ocean",
        "Caribbean Sea"
      ]
    },
    "coordinates": {
      "lat": "10.351396775322202",
      "lng": "-75.59606552124025"
    },
    "additionalInfo": {}
  },
  {
    "id": "b45ec1f3-7218-4628-83c7-583691107366",
    "name": "Los Gemelos",
    "location": {
      "country": "Colombia",
      "region": "Malpelo Island, Colombia",
      "ocean": [
        "Pacific Ocean"
      ]
    },
    "coordinates": {
      "lat": "3.9983919813276594",
      "lng": "-81.60668134689332"
    },
    "additionalInfo": {}
  },
  {
    "id": "b4f88da6-05ea-47a3-ac60-fc4096d616a6",
    "name": "Nirvana",
    "location": {
      "country": "Colombia",
      "region": "San Andrés, San Andrés And Providencia",
      "ocean": [
        "Atlantic Ocean",
        "Caribbean Sea"
      ]
    },
    "coordinates": {
      "lat": "12.502573768321666",
      "lng": "-81.7318117618561"
    },
    "additionalInfo": {}
  },
  {
    "id": "b5af9508-c494-4422-98e0-a4d6ee261b99",
    "name": "El Planchon",
    "location": {
      "country": "Colombia",
      "region": "Fuerte Island, Colombia",
      "ocean": [
        "Atlantic Ocean",
        "Caribbean Sea"
      ]
    },
    "coordinates": {
      "lat": "9.372726868824875",
      "lng": "-76.18252515792848"
    },
    "additionalInfo": {}
  },
  {
    "id": "b718fdb3-cae8-4e87-84c9-09c4c8f70027",
    "name": "La Pared Del Naufrago",
    "location": {
      "country": "Colombia",
      "region": "Malpelo Island, Colombia",
      "ocean": [
        "Pacific Ocean"
      ]
    },
    "coordinates": {
      "lat": "4.008859176704796",
      "lng": "-81.60553336143495"
    },
    "additionalInfo": {}
  },
  {
    "id": "b7a39305-64ba-4b33-9492-44ce7e53033d",
    "name": "Punta Negra",
    "location": {
      "country": "Colombia",
      "region": "Colombia, South America",
      "ocean": [
        "Atlantic Ocean",
        "Caribbean Sea"
      ]
    },
    "coordinates": {
      "lat": "11.323782689123748",
      "lng": "-74.19449329376222"
    },
    "additionalInfo": {}
  },
  {
    "id": "ba76d90e-f72f-4820-8c1b-3feb027c1749",
    "name": "La Travesia",
    "location": {
      "country": "Colombia",
      "region": "Colombia, South America",
      "ocean": [
        "Atlantic Ocean",
        "Caribbean Sea"
      ]
    },
    "coordinates": {
      "lat": "11.317933520257034",
      "lng": "-74.20123100280763"
    },
    "additionalInfo": {}
  },
  {
    "id": "bab9e535-0e9b-4815-9764-b2057096b820",
    "name": "Sebastian De Belalcazar",
    "location": {
      "country": "Colombia",
      "region": "Choco, Colombia",
      "ocean": [
        "Pacific Ocean"
      ]
    },
    "coordinates": {
      "lat": "6.3275830087616125",
      "lng": "-77.52296447753908"
    },
    "additionalInfo": {}
  },
  {
    "id": "bb93d4ba-52e3-4269-bce0-bc85560872e9",
    "name": "Big Channel",
    "location": {
      "country": "Colombia",
      "region": "San Andrés, San Andrés And Providencia",
      "ocean": [
        "Atlantic Ocean",
        "Caribbean Sea"
      ]
    },
    "coordinates": {
      "lat": "12.593098716990538",
      "lng": "-81.67468070983888"
    },
    "additionalInfo": {}
  },
  {
    "id": "bc2e8242-e984-4c1c-8bb0-5c05414d477e",
    "name": "Cayo Cangrejo",
    "location": {
      "country": "Colombia",
      "region": "Providencia, San Andrés And Providencia",
      "ocean": [
        "Atlantic Ocean",
        "Caribbean Sea"
      ]
    },
    "coordinates": {
      "lat": "13.376280476555847",
      "lng": "-81.3455092906952"
    },
    "additionalInfo": {}
  },
  {
    "id": "bc4a8582-7456-4e97-9d80-c0cec95ecb9e",
    "name": "El Remanso",
    "location": {
      "country": "Colombia",
      "region": "Gorgona Island, Colombia",
      "ocean": [
        "Pacific Ocean"
      ]
    },
    "coordinates": {
      "lat": "2.9946416336994117",
      "lng": "-78.16510677337648"
    },
    "additionalInfo": {}
  },
  {
    "id": "bffb5a02-4fdb-4be4-a0ae-ff03d0e1add9",
    "name": "La Pared",
    "location": {
      "country": "Colombia",
      "region": "San Andrés, San Andrés And Providencia",
      "ocean": [
        "Atlantic Ocean",
        "Caribbean Sea"
      ]
    },
    "coordinates": {
      "lat": "12.492476234554184",
      "lng": "-81.71993494033815"
    },
    "additionalInfo": {}
  },
  {
    "id": "c028fbf0-5fdb-49a5-9cf8-f5ad7ab12151",
    "name": "Los Boyones",
    "location": {
      "country": "Colombia",
      "region": "Fuerte Island, Colombia",
      "ocean": [
        "Atlantic Ocean",
        "Caribbean Sea"
      ]
    },
    "coordinates": {
      "lat": "9.376791716914095",
      "lng": "-76.18415594100952"
    },
    "additionalInfo": {}
  },
  {
    "id": "c1c671ea-b80e-4830-9a81-25781fbb2398",
    "name": "El Sahara",
    "location": {
      "country": "Colombia",
      "region": "Malpelo Island, Colombia",
      "ocean": [
        "Pacific Ocean"
      ]
    },
    "coordinates": {
      "lat": "3.9993766311743912",
      "lng": "-81.61383748054504"
    },
    "additionalInfo": {}
  },
  {
    "id": "c2e19111-19a1-4366-884b-963500a78a9e",
    "name": "Cantil Ceycen",
    "location": {
      "country": "Colombia",
      "region": "Colombia, South America",
      "ocean": [
        "Atlantic Ocean",
        "Caribbean Sea"
      ]
    },
    "coordinates": {
      "lat": "9.712441104330008",
      "lng": "-75.8353614807129"
    },
    "additionalInfo": {}
  },
  {
    "id": "c42fadfa-d158-4ffc-9ae4-1ff6f431af0f",
    "name": "Balsat Place",
    "location": {
      "country": "Colombia",
      "region": "Providencia, San Andrés And Providencia",
      "ocean": [
        "Atlantic Ocean",
        "Caribbean Sea"
      ]
    },
    "coordinates": {
      "lat": "13.417673157887597",
      "lng": "-81.33195877075197"
    },
    "additionalInfo": {}
  },
  {
    "id": "c485313f-d668-476d-81e5-cc05e5bdabdb",
    "name": "Cantil Reggae Nest",
    "location": {
      "country": "Colombia",
      "region": "San Andrés, San Andrés And Providencia",
      "ocean": [
        "Atlantic Ocean",
        "Caribbean Sea"
      ]
    },
    "coordinates": {
      "lat": "12.557076869192045",
      "lng": "-81.73690795898439"
    },
    "additionalInfo": {}
  },
  {
    "id": "c6eaf45d-06ba-4752-84d6-fedfc3b53047",
    "name": "La Azufrada",
    "location": {
      "country": "Colombia",
      "region": "Gorgona Island, Colombia",
      "ocean": [
        "Pacific Ocean"
      ]
    },
    "coordinates": {
      "lat": "2.95486985995607",
      "lng": "-78.17403316497803"
    },
    "additionalInfo": {}
  },
  {
    "id": "c6faf7f0-db9e-4f92-a7ab-a171e6e2dd4a",
    "name": "Centinela Del Notre",
    "location": {
      "country": "Colombia",
      "region": "Choco, Colombia",
      "ocean": [
        "Pacific Ocean"
      ]
    },
    "coordinates": {
      "lat": "6.698706650517336",
      "lng": "-77.8319549560547"
    },
    "additionalInfo": {}
  },
  {
    "id": "c951d1d0-e386-4ddd-a3f6-352a4efbb5fe",
    "name": "Cantil Bajo Bonito",
    "location": {
      "country": "Colombia",
      "region": "San Andrés, San Andrés And Providencia",
      "ocean": [
        "Atlantic Ocean",
        "Caribbean Sea"
      ]
    },
    "coordinates": {
      "lat": "12.596281799999607",
      "lng": "-81.7128109931946"
    },
    "additionalInfo": {}
  },
  {
    "id": "ca5f614f-5342-4b51-ba28-1dbe6a7b734e",
    "name": "Las Montanitas",
    "location": {
      "country": "Colombia",
      "region": "San Andrés, San Andrés And Providencia",
      "ocean": [
        "Atlantic Ocean",
        "Caribbean Sea"
      ]
    },
    "coordinates": {
      "lat": "12.596784388441714",
      "lng": "-81.70971035957338"
    },
    "additionalInfo": {}
  },
  {
    "id": "cb9aa10a-a6fc-44d0-93f7-616159a151c2",
    "name": "Cueva Del Mero",
    "location": {
      "country": "Colombia",
      "region": "Colombia, South America",
      "ocean": [
        "Atlantic Ocean",
        "Caribbean Sea",
        "Gulf Of Uraba"
      ]
    },
    "coordinates": {
      "lat": "8.654341698550427",
      "lng": "-77.29516983032228"
    },
    "additionalInfo": {}
  },
  {
    "id": "cd61aa1f-076b-48c3-83c1-6b6b44531dc3",
    "name": "El Corito",
    "location": {
      "country": "Colombia",
      "region": "Colombia, South America",
      "ocean": [
        "Atlantic Ocean",
        "Caribbean Sea"
      ]
    },
    "coordinates": {
      "lat": "11.315787392354615",
      "lng": "-74.19028759002687"
    },
    "additionalInfo": {}
  },
  {
    "id": "cd8ebd76-9a1c-4307-a98f-0e84dbf6c120",
    "name": "Palmar",
    "location": {
      "country": "Colombia",
      "region": "Colombia, South America",
      "ocean": [
        "Atlantic Ocean",
        "Caribbean Sea",
        "Gulf Of Uraba"
      ]
    },
    "coordinates": {
      "lat": "8.662826945861797",
      "lng": "-77.3518180847168"
    },
    "additionalInfo": {}
  },
  {
    "id": "d0354b32-14db-40fa-88dd-f6c3ce84306f",
    "name": "Punta Padi",
    "location": {
      "country": "Colombia",
      "region": "San Andrés, San Andrés And Providencia",
      "ocean": [
        "Atlantic Ocean",
        "Caribbean Sea"
      ]
    },
    "coordinates": {
      "lat": "12.52762735467588",
      "lng": "-81.73498749732973"
    },
    "additionalInfo": {}
  },
  {
    "id": "d1f52c0c-5933-481a-beba-486b920c3e28",
    "name": "Racas Del Homo",
    "location": {
      "country": "Colombia",
      "region": "Gorgona Island, Colombia",
      "ocean": [
        "Pacific Ocean"
      ]
    },
    "coordinates": {
      "lat": "3.005098628308091",
      "lng": "-78.16287517547609"
    },
    "additionalInfo": {}
  },
  {
    "id": "d2075c54-48c0-4bca-bf09-0ee5c670aa65",
    "name": "Los Farallones",
    "location": {
      "country": "Colombia",
      "region": "Gorgona Island, Colombia",
      "ocean": [
        "Pacific Ocean"
      ]
    },
    "coordinates": {
      "lat": "2.9463838869068386",
      "lng": "-78.21308612823486"
    },
    "additionalInfo": {}
  },
  {
    "id": "d2a864f6-efae-4fc3-8411-cca1c528b735",
    "name": "Bajo Camio",
    "location": {
      "country": "Colombia",
      "region": "San Andrés, San Andrés And Providencia",
      "ocean": [
        "Atlantic Ocean",
        "Caribbean Sea"
      ]
    },
    "coordinates": {
      "lat": "12.583130385723681",
      "lng": "-81.68652534484865"
    },
    "additionalInfo": {}
  },
  {
    "id": "d4a536d0-8463-4721-8879-13838f3a600a",
    "name": "Cabo Tiburon ",
    "location": {
      "country": "Colombia",
      "region": "Colombia, South America",
      "ocean": [
        "Atlantic Ocean",
        "Caribbean Sea",
        "Gulf Of Uraba"
      ]
    },
    "coordinates": {
      "lat": "8.685227078396208",
      "lng": "-77.362117767334"
    },
    "additionalInfo": {}
  },
  {
    "id": "d72fa956-f28f-4d10-8a57-ff5134ae7597",
    "name": "La Piedra De Polo",
    "location": {
      "country": "Colombia",
      "region": "Choco, Colombia",
      "ocean": [
        "Pacific Ocean"
      ]
    },
    "coordinates": {
      "lat": "5.5681493820272046",
      "lng": "-77.63145446777345"
    },
    "additionalInfo": {}
  },
  {
    "id": "d9a3ad9f-76c6-4524-90cb-2d3f358ad8f1",
    "name": "Arrecife De Vidales",
    "location": {
      "country": "Colombia",
      "region": "Choco, Colombia",
      "ocean": [
        "Pacific Ocean"
      ]
    },
    "coordinates": {
      "lat": "6.389000968929814",
      "lng": "-77.46528625488283"
    },
    "additionalInfo": {}
  },
  {
    "id": "d9be80c8-173f-4d9b-8dfc-a6acc6d63dea",
    "name": "Paso De Angel",
    "location": {
      "country": "Colombia",
      "region": "Colombia, South America",
      "ocean": [
        "Atlantic Ocean",
        "Caribbean Sea"
      ]
    },
    "coordinates": {
      "lat": "11.317933520257034",
      "lng": "-74.19938564300539"
    },
    "additionalInfo": {}
  },
  {
    "id": "da975573-b4e7-440a-b493-ff7424d8fea2",
    "name": "Piedra De Becerra",
    "location": {
      "country": "Colombia",
      "region": "Choco, Colombia",
      "ocean": [
        "Pacific Ocean"
      ]
    },
    "coordinates": {
      "lat": "6.211551441519991",
      "lng": "-77.56141662597658"
    },
    "additionalInfo": {}
  },
  {
    "id": "daec95fe-d213-4b25-a4bd-e2b0440d1202",
    "name": "El Planchon",
    "location": {
      "country": "Colombia",
      "region": "Gorgona Island, Colombia",
      "ocean": [
        "Pacific Ocean"
      ]
    },
    "coordinates": {
      "lat": "2.964641506121844",
      "lng": "-78.16948413848877"
    },
    "additionalInfo": {}
  },
  {
    "id": "dbab662b-b6ce-494f-8cfc-a8a5b03e3b8e",
    "name": "El Cove",
    "location": {
      "country": "Colombia",
      "region": "San Andrés, San Andrés And Providencia",
      "ocean": [
        "Atlantic Ocean",
        "Caribbean Sea"
      ]
    },
    "coordinates": {
      "lat": "12.526119180827186",
      "lng": "-81.73168301582338"
    },
    "additionalInfo": {}
  },
  {
    "id": "dc0318cd-025b-4b94-908d-21b30f7e9263",
    "name": "Scuba",
    "location": {
      "country": "Colombia",
      "region": "Malpelo Island, Colombia",
      "ocean": [
        "Pacific Ocean"
      ]
    },
    "coordinates": {
      "lat": "3.9936613644903747",
      "lng": "-81.61293625831605"
    },
    "additionalInfo": {}
  },
  {
    "id": "dc485e0f-6aaf-4108-9691-a3dd50270caa",
    "name": "La Piedra De Fidel",
    "location": {
      "country": "Colombia",
      "region": "Choco, Colombia",
      "ocean": [
        "Pacific Ocean"
      ]
    },
    "coordinates": {
      "lat": "5.661085149390164",
      "lng": "-77.33654022216798"
    },
    "additionalInfo": {}
  },
  {
    "id": "de2c27b1-4cb3-4582-83fd-1c1ae0929ac9",
    "name": "Solaris (Cantil Casa De Las Cuevas)",
    "location": {
      "country": "Colombia",
      "region": "San Andrés, San Andrés And Providencia",
      "ocean": [
        "Atlantic Ocean",
        "Caribbean Sea"
      ]
    },
    "coordinates": {
      "lat": "12.485520857472384",
      "lng": "-81.73684358596803"
    },
    "additionalInfo": {}
  },
  {
    "id": "e1d70889-0acf-4f26-8e37-f3e63cc3245d",
    "name": "Pared Nirvana",
    "location": {
      "country": "Colombia",
      "region": "San Andrés, San Andrés And Providencia",
      "ocean": [
        "Atlantic Ocean",
        "Caribbean Sea"
      ]
    },
    "coordinates": {
      "lat": "12.501631069208587",
      "lng": "-81.73277735710145"
    },
    "additionalInfo": {}
  },
  {
    "id": "e33ad276-ccdb-4fcc-a94f-74394f5893e2",
    "name": "Morrito Largo",
    "location": {
      "country": "Colombia",
      "region": "Colombia, South America",
      "ocean": [
        "Atlantic Ocean",
        "Caribbean Sea"
      ]
    },
    "coordinates": {
      "lat": "11.317007741566329",
      "lng": "-74.20275449752809"
    },
    "additionalInfo": {}
  },
  {
    "id": "e33dbe84-548f-422b-9e45-5d3c1c593ca9",
    "name": "La Parguera",
    "location": {
      "country": "Colombia",
      "region": "San Andrés, San Andrés And Providencia",
      "ocean": [
        "Atlantic Ocean",
        "Caribbean Sea"
      ]
    },
    "coordinates": {
      "lat": "12.538310000178434",
      "lng": "-81.67624711990358"
    },
    "additionalInfo": {}
  },
  {
    "id": "e3fa0da6-72e3-455f-bd8a-95af36abaacf",
    "name": "Montanita 1",
    "location": {
      "country": "Colombia",
      "region": "Gorgona Island, Colombia",
      "ocean": [
        "Pacific Ocean"
      ]
    },
    "coordinates": {
      "lat": "2.964384358643023",
      "lng": "-78.19703578948975"
    },
    "additionalInfo": {}
  },
  {
    "id": "e9191813-b7a7-40b0-ac2c-3cc6919f7ce0",
    "name": "Reggae Nest",
    "location": {
      "country": "Colombia",
      "region": "San Andrés, San Andrés And Providencia",
      "ocean": [
        "Atlantic Ocean",
        "Caribbean Sea"
      ]
    },
    "coordinates": {
      "lat": "12.558668638869923",
      "lng": "-81.73421502113342"
    },
    "additionalInfo": {}
  },
  {
    "id": "ea4e1911-3204-48b5-8884-8ab4fe50632d",
    "name": "The Hole",
    "location": {
      "country": "Colombia",
      "region": "Providencia, San Andrés And Providencia",
      "ocean": [
        "Atlantic Ocean",
        "Caribbean Sea"
      ]
    },
    "coordinates": {
      "lat": "13.363900949959062",
      "lng": "-81.3952159881592"
    },
    "additionalInfo": {}
  },
  {
    "id": "ec6639c2-7c09-42c3-bc21-3159db925e19",
    "name": "El Bobito",
    "location": {
      "country": "Colombia",
      "region": "Fuerte Island, Colombia",
      "ocean": [
        "Atlantic Ocean",
        "Caribbean Sea"
      ]
    },
    "coordinates": {
      "lat": "9.399189868839844",
      "lng": "-76.19344711303712"
    },
    "additionalInfo": {}
  },
  {
    "id": "ec865ca5-b00b-44f3-8a72-de7db9d3ba2d",
    "name": "Blue Hole",
    "location": {
      "country": "Colombia",
      "region": "Providencia, San Andrés And Providencia",
      "ocean": [
        "Atlantic Ocean",
        "Caribbean Sea"
      ]
    },
    "coordinates": {
      "lat": "13.411327994909957",
      "lng": "-81.39101028442384"
    },
    "additionalInfo": {}
  },
  {
    "id": "f1ed0da6-294d-4e70-ae06-fc27fb6eea91",
    "name": "Salidero",
    "location": {
      "country": "Colombia",
      "region": "Colombia, South America",
      "ocean": [
        "Atlantic Ocean",
        "Caribbean Sea"
      ]
    },
    "coordinates": {
      "lat": "11.310379920339482",
      "lng": "-74.19316291809083"
    },
    "additionalInfo": {}
  },
  {
    "id": "f1fdaa45-978c-456b-9003-486a35f018be",
    "name": "Cantil Del Aeropuerto / Avion",
    "location": {
      "country": "Colombia",
      "region": "San Andrés, San Andrés And Providencia",
      "ocean": [
        "Atlantic Ocean",
        "Caribbean Sea"
      ]
    },
    "coordinates": {
      "lat": "12.576931396248726",
      "lng": "-81.7257606983185"
    },
    "additionalInfo": {}
  },
  {
    "id": "f4d3ac30-80d3-4043-9c60-1a7032fe14fd",
    "name": "La Ferreteria",
    "location": {
      "country": "Colombia",
      "region": "Malpelo Island, Colombia",
      "ocean": [
        "Pacific Ocean"
      ]
    },
    "coordinates": {
      "lat": "3.9931048195396595",
      "lng": "-81.61648213863374"
    },
    "additionalInfo": {}
  },
  {
    "id": "f58836b6-8959-45d9-8afa-e6fa3ad42d41",
    "name": "Cantil De La Rocosa",
    "location": {
      "country": "Colombia",
      "region": "San Andrés, San Andrés And Providencia",
      "ocean": [
        "Atlantic Ocean",
        "Caribbean Sea"
      ]
    },
    "coordinates": {
      "lat": "12.58440894565634",
      "lng": "-81.72008514404298"
    },
    "additionalInfo": {}
  },
  {
    "id": "f5f5d977-4f0f-41ee-b143-0a16b343b72a",
    "name": "Palacio De Las Chernas",
    "location": {
      "country": "Colombia",
      "region": "San Andrés, San Andrés And Providencia",
      "ocean": [
        "Atlantic Ocean",
        "Caribbean Sea"
      ]
    },
    "coordinates": {
      "lat": "12.495660561640005",
      "lng": "-81.71838998794557"
    },
    "additionalInfo": {}
  },
  {
    "id": "f6da53bd-a84f-4833-ab6e-8c29d36a5542",
    "name": "Piedras De Carlitos",
    "location": {
      "country": "Colombia",
      "region": "San Andrés, San Andrés And Providencia",
      "ocean": [
        "Atlantic Ocean",
        "Caribbean Sea"
      ]
    },
    "coordinates": {
      "lat": "12.501107345993079",
      "lng": "-81.71298265457155"
    },
    "additionalInfo": {}
  },
  {
    "id": "f9b0a147-21dc-4e68-ba7b-81f74419957d",
    "name": "Cantil De Granate",
    "location": {
      "country": "Colombia",
      "region": "Colombia, South America",
      "ocean": [
        "Atlantic Ocean",
        "Caribbean Sea"
      ]
    },
    "coordinates": {
      "lat": "11.304004442843274",
      "lng": "-74.18869972229005"
    },
    "additionalInfo": {}
  },
  {
    "id": "f9e25510-8690-4b72-99fc-583130fe8eaa",
    "name": "Cantil De La Piscinita",
    "location": {
      "country": "Colombia",
      "region": "San Andrés, San Andrés And Providencia",
      "ocean": [
        "Atlantic Ocean",
        "Caribbean Sea"
      ]
    },
    "coordinates": {
      "lat": "12.50869075454573",
      "lng": "-81.73194050788881"
    },
    "additionalInfo": {}
  },
  {
    "id": "fc1a816f-edb0-4f13-a18f-86e559ac8f01",
    "name": "La Camaronera",
    "location": {
      "country": "Colombia",
      "region": "Gorgona Island, Colombia",
      "ocean": [
        "Pacific Ocean"
      ]
    },
    "coordinates": {
      "lat": "2.9604414231537626",
      "lng": "-78.20446014404298"
    },
    "additionalInfo": {}
  },
  {
    "id": "fc5e2169-deea-4b6c-bedf-1eabbbf70834",
    "name": "Chuzudo Seco Y Hundildo",
    "location": {
      "country": "Colombia",
      "region": "Choco, Colombia",
      "ocean": [
        "Pacific Ocean"
      ]
    },
    "coordinates": {
      "lat": "5.643319165077772",
      "lng": "-77.45979309082033"
    },
    "additionalInfo": {}
  }
]