[
  {
    "id": "002ce190-9e35-4891-bd15-d9f8b76467a2",
    "name": "28 Fathoms",
    "location": {
      "country": "Guinea",
      "region": "New Britain, Papua New Guinea",
      "ocean": [
        "Pacific Ocean",
        "Bismarck Sea"
      ]
    },
    "coordinates": {
      "lat": "-5.3788158940514075",
      "lng": "150.30755996704104"
    },
    "additionalInfo": {}
  },
  {
    "id": "041fe596-e932-44a5-a68c-402fb80966f1",
    "name": "No Name Reef",
    "location": {
      "country": "Guinea",
      "region": "New Britain, Papua New Guinea",
      "ocean": [
        "Pacific Ocean",
        "Bismarck Sea"
      ]
    },
    "coordinates": {
      "lat": "-5.254384068418068",
      "lng": "150.1492023468018"
    },
    "additionalInfo": {}
  },
  {
    "id": "04e68005-db97-4b5e-b729-105a17de6489",
    "name": "Black Rock",
    "location": {
      "country": "Guinea",
      "region": "Papua New Guinea, Melanesia",
      "ocean": [
        "Pacific Ocean",
        "Java Sea",
        "Oro Bay"
      ]
    },
    "coordinates": {
      "lat": "-9.108029183211615",
      "lng": "149.33132171630862"
    },
    "additionalInfo": {}
  },
  {
    "id": "05236a0f-80b1-43e1-ade8-ee0163dd8074",
    "name": "Katherine&#039;s Reef",
    "location": {
      "country": "Guinea",
      "region": "New Britain, Papua New Guinea",
      "ocean": [
        "Pacific Ocean",
        "Bismarck Sea"
      ]
    },
    "coordinates": {
      "lat": "-5.2572900423651285",
      "lng": "150.14250755310061"
    },
    "additionalInfo": {}
  },
  {
    "id": "0717b427-42fd-4ce3-8f29-98b263bb8dd9",
    "name": "Veales",
    "location": {
      "country": "Guinea",
      "region": "Papua New Guinea, Melanesia",
      "ocean": [
        "Pacific Ocean",
        "Java Sea",
        "Oro Bay"
      ]
    },
    "coordinates": {
      "lat": "-9.102096738726443",
      "lng": "149.5123386383057"
    },
    "additionalInfo": {}
  },
  {
    "id": "092ab410-9ad7-40d6-bb68-2c148510e33e",
    "name": "Pete&#039;s Floatplanes",
    "location": {
      "country": "Guinea",
      "region": "Nusalik, New Ireland Island",
      "ocean": [
        "Pacific Ocean",
        "Steffen Strait"
      ]
    },
    "coordinates": {
      "lat": "-2.5803993858769725",
      "lng": "150.7847785949707"
    },
    "additionalInfo": {}
  },
  {
    "id": "0959fed3-2e75-45c5-9f3d-0ccae45dae71",
    "name": "Otto Point",
    "location": {
      "country": "Guinea",
      "region": "New Britain, Papua New Guinea",
      "ocean": [
        "Pacific Ocean",
        "Bismarck Sea"
      ]
    },
    "coordinates": {
      "lat": "-5.328909448322195",
      "lng": "150.3044700622559"
    },
    "additionalInfo": {}
  },
  {
    "id": "099abd24-2b0e-4fe6-af9f-a92f678fc7b0",
    "name": "Jj Reef",
    "location": {
      "country": "Guinea",
      "region": "New Britain, Papua New Guinea",
      "ocean": [
        "Pacific Ocean",
        "Bismarck Sea"
      ]
    },
    "coordinates": {
      "lat": "-5.313526505357862",
      "lng": "150.08740425109866"
    },
    "additionalInfo": {}
  },
  {
    "id": "0c307581-6342-4e63-8667-f0ead63f4c57",
    "name": "Mullaway",
    "location": {
      "country": "Guinea",
      "region": "Papua New Guinea, Melanesia",
      "ocean": [
        "Pacific Ocean",
        "Java Sea",
        "Oro Bay"
      ]
    },
    "coordinates": {
      "lat": "-9.088197483527022",
      "lng": "149.50564384460452"
    },
    "additionalInfo": {}
  },
  {
    "id": "0d0a7360-2d0c-47d5-b5db-3d814b103207",
    "name": "Ral Island",
    "location": {
      "country": "Guinea",
      "region": "New Ireland Island, Papua New Guinea",
      "ocean": [
        "Pacific Ocean",
        "Steffen Strait"
      ]
    },
    "coordinates": {
      "lat": "-2.6133245226599824",
      "lng": "150.73225021362308"
    },
    "additionalInfo": {}
  },
  {
    "id": "0dc491f8-c812-43d6-9489-8d3812005756",
    "name": "Robert&#039;s Reef",
    "location": {
      "country": "Guinea",
      "region": "New Britain, Papua New Guinea",
      "ocean": [
        "Pacific Ocean",
        "Bismarck Sea"
      ]
    },
    "coordinates": {
      "lat": "-5.427009330585796",
      "lng": "150.37279129028323"
    },
    "additionalInfo": {}
  },
  {
    "id": "0ef113bc-38bc-4e04-8dec-1df521fc4a27",
    "name": "The Hump",
    "location": {
      "country": "Guinea",
      "region": "New Britain, Papua New Guinea",
      "ocean": [
        "Atlantic Ocean",
        "Saint George's Channel"
      ]
    },
    "coordinates": {
      "lat": "-4.07232303121871",
      "lng": "152.24767684936526"
    },
    "additionalInfo": {}
  },
  {
    "id": "11fc98ae-8275-48a4-8e48-7a4b726194b1",
    "name": "Big Fish Reef",
    "location": {
      "country": "Guinea",
      "region": "New Hanover, New Ireland Island",
      "ocean": [
        "Pacific Ocean"
      ]
    },
    "coordinates": {
      "lat": "-2.320570442951446",
      "lng": "150.36952972412112"
    },
    "additionalInfo": {}
  },
  {
    "id": "121a11e4-52b6-46db-bbd5-09cad1082087",
    "name": "Peter&#039;s Biplane",
    "location": {
      "country": "Guinea",
      "region": "New Britain, Papua New Guinea",
      "ocean": [
        "Atlantic Ocean",
        "Saint George's Channel"
      ]
    },
    "coordinates": {
      "lat": "-4.142865843842519",
      "lng": "152.14910030364993"
    },
    "additionalInfo": {}
  },
  {
    "id": "159b5547-3660-4cfe-9d77-61f1945cd59f",
    "name": "Hanging Gardens",
    "location": {
      "country": "Guinea",
      "region": "New Britain, Papua New Guinea",
      "ocean": [
        "Pacific Ocean",
        "Bismarck Sea"
      ]
    },
    "coordinates": {
      "lat": "-5.4348703068813276",
      "lng": "150.10293960571292"
    },
    "additionalInfo": {}
  },
  {
    "id": "1631347e-7732-4386-a5e7-2222486047d6",
    "name": "B52 Stubborn Hellion",
    "location": {
      "country": "Guinea",
      "region": "Manne Island, New Ireland Island",
      "ocean": [
        "Pacific Ocean",
        "Steffen Strait"
      ]
    },
    "coordinates": {
      "lat": "-2.7107229546647864",
      "lng": "150.69122314453128"
    },
    "additionalInfo": {}
  },
  {
    "id": "16dd5f5d-d675-4d30-9581-a88c2f903b7c",
    "name": "Hannah&#039;s Hotspot",
    "location": {
      "country": "Guinea",
      "region": "New Britain, Papua New Guinea",
      "ocean": [
        "Atlantic Ocean",
        "Saint George's Channel"
      ]
    },
    "coordinates": {
      "lat": "-4.172142694351845",
      "lng": "151.9198036193848"
    },
    "additionalInfo": {}
  },
  {
    "id": "1757bded-1ca2-4ae3-9404-8f258780dde1",
    "name": "Turtle Reef",
    "location": {
      "country": "Guinea",
      "region": "Lemus, New Ireland Island",
      "ocean": [
        "Pacific Ocean",
        "Steffen Strait"
      ]
    },
    "coordinates": {
      "lat": "-2.640247040094096",
      "lng": "150.62479019165042"
    },
    "additionalInfo": {}
  },
  {
    "id": "179bb9bc-f438-4857-a95b-a068dc7fb4a8",
    "name": "Frank&#039;s Reef",
    "location": {
      "country": "Guinea",
      "region": "Baudisson Island, New Ireland Island",
      "ocean": [
        "Pacific Ocean",
        "Steffen Strait"
      ]
    },
    "coordinates": {
      "lat": "-2.7266694938247817",
      "lng": "150.6318283081055"
    },
    "additionalInfo": {}
  },
  {
    "id": "1920089e-39d8-40ab-a4e3-27b1e97c99c6",
    "name": "The Washing Machine",
    "location": {
      "country": "Guinea",
      "region": "Ito Island, Papua New Guinea",
      "ocean": [
        "Pacific Ocean",
        "Solomon Sea",
        "Milne Bay"
      ]
    },
    "coordinates": {
      "lat": "-10.572872105561146",
      "lng": "150.7379150390625"
    },
    "additionalInfo": {}
  },
  {
    "id": "1970a161-3de9-4097-ac8f-36775d8e57dc",
    "name": "Paluma Reef",
    "location": {
      "country": "Guinea",
      "region": "New Britain, Papua New Guinea",
      "ocean": [
        "Pacific Ocean",
        "Bismarck Sea"
      ]
    },
    "coordinates": {
      "lat": "-5.460503211618596",
      "lng": "150.3487586975098"
    },
    "additionalInfo": {}
  },
  {
    "id": "1f2e32d9-3e5f-44c8-986d-c187b7668118",
    "name": "Darwin Reef",
    "location": {
      "country": "Guinea",
      "region": "Selapiu, New Ireland Island",
      "ocean": [
        "Pacific Ocean",
        "Steffen Strait"
      ]
    },
    "coordinates": {
      "lat": "-2.697348275868089",
      "lng": "150.55509567260745"
    },
    "additionalInfo": {}
  },
  {
    "id": "1f42e48d-f730-467d-a62c-f919cd2914e8",
    "name": "Mj",
    "location": {
      "country": "Guinea",
      "region": "Papua New Guinea, Melanesia",
      "ocean": [
        "Pacific Ocean",
        "Java Sea",
        "Oro Bay"
      ]
    },
    "coordinates": {
      "lat": "-9.041071608987645",
      "lng": "149.4950866699219"
    },
    "additionalInfo": {}
  },
  {
    "id": "20905830-2400-4757-b66d-04c6a965d404",
    "name": "Rabaul Wrecks",
    "location": {
      "country": "Guinea",
      "region": "New Britain, Papua New Guinea",
      "ocean": [
        "Atlantic Ocean",
        "Saint George's Channel"
      ]
    },
    "coordinates": {
      "lat": "-4.221106212250807",
      "lng": "152.16605186462405"
    },
    "additionalInfo": {}
  },
  {
    "id": "2218f57f-d8a7-45f5-b92b-63ccdfbf5379",
    "name": "Pacific Gas",
    "location": {
      "country": "Guinea",
      "region": "Papua New Guinea, Melanesia",
      "ocean": [
        "Oceania",
        "Melanesia",
        "Papua New Guinea"
      ]
    },
    "coordinates": {
      "lat": "-9.570324610298393",
      "lng": "147.28116989135745"
    },
    "additionalInfo": {}
  },
  {
    "id": "243758bf-5057-4e96-96ab-8fa1c86d550b",
    "name": "Planet Rock",
    "location": {
      "country": "Guinea",
      "region": "Papua New Guinea, Melanesia",
      "ocean": [
        "Pacific Ocean",
        "Bismarck Sea",
        "Astrolabe Bay"
      ]
    },
    "coordinates": {
      "lat": "-5.293271711451454",
      "lng": "145.77501296997073"
    },
    "additionalInfo": {}
  },
  {
    "id": "2438f8ff-f452-42d3-9774-4fd4466b75f3",
    "name": "Buddy",
    "location": {
      "country": "Guinea",
      "region": "Papua New Guinea, Melanesia",
      "ocean": [
        "Pacific Ocean",
        "Java Sea",
        "Oro Bay"
      ]
    },
    "coordinates": {
      "lat": "-9.064465801676853",
      "lng": "149.45860862731936"
    },
    "additionalInfo": {}
  },
  {
    "id": "244cbdfa-d41f-42db-b16c-200ba66e56b6",
    "name": "Mithsubishi Zero",
    "location": {
      "country": "Guinea",
      "region": "New Britain, Papua New Guinea",
      "ocean": [
        "Atlantic Ocean",
        "Saint George's Channel"
      ]
    },
    "coordinates": {
      "lat": "-4.307384034575453",
      "lng": "152.23171234130862"
    },
    "additionalInfo": {}
  },
  {
    "id": "2cd7b2f4-b8ac-45c7-b2ea-2d81b5b09bd4",
    "name": "Helmut&#039;s Reef",
    "location": {
      "country": "Guinea",
      "region": "Baudisson Island, New Ireland Island",
      "ocean": [
        "Pacific Ocean",
        "Steffen Strait"
      ]
    },
    "coordinates": {
      "lat": "-2.7024924005444553",
      "lng": "150.62032699584964"
    },
    "additionalInfo": {}
  },
  {
    "id": "2d3a6b5e-6578-4c53-b585-7772e58a743e",
    "name": "Yuko&#039;s",
    "location": {
      "country": "Guinea",
      "region": "Papua New Guinea, Melanesia",
      "ocean": [
        "Pacific Ocean",
        "Java Sea",
        "Oro Bay"
      ]
    },
    "coordinates": {
      "lat": "-9.016319576562847",
      "lng": "149.49079513549808"
    },
    "additionalInfo": {}
  },
  {
    "id": "33593573-fcde-42dc-bbb6-26f658aac3ae",
    "name": "Tonys",
    "location": {
      "country": "Guinea",
      "region": "Papua New Guinea, Melanesia",
      "ocean": [
        "Pacific Ocean",
        "Java Sea",
        "Oro Bay"
      ]
    },
    "coordinates": {
      "lat": "-9.137011994980648",
      "lng": "149.48882102966311"
    },
    "additionalInfo": {}
  },
  {
    "id": "351877b8-61f2-4d6b-b868-795b5ac616d7",
    "name": "Tenryu Maru",
    "location": {
      "country": "Guinea",
      "region": "Nago Island, New Ireland Island",
      "ocean": [
        "Pacific Ocean",
        "Steffen Strait"
      ]
    },
    "coordinates": {
      "lat": "-2.613667488309071",
      "lng": "150.77156066894534"
    },
    "additionalInfo": {}
  },
  {
    "id": "3535ae38-bc6f-43e5-9a47-480220610b93",
    "name": "Submarine Base",
    "location": {
      "country": "Guinea",
      "region": "New Britain, Papua New Guinea",
      "ocean": [
        "Atlantic Ocean",
        "Saint George's Channel"
      ]
    },
    "coordinates": {
      "lat": "-4.131908147021405",
      "lng": "152.17042922973636"
    },
    "additionalInfo": {}
  },
  {
    "id": "36cdc500-f875-4bc4-aca3-f6f0083cc9a3",
    "name": "House Reef",
    "location": {
      "country": "Guinea",
      "region": "Papua New Guinea, Melanesia",
      "ocean": [
        "Pacific Ocean",
        "Java Sea",
        "Oro Bay"
      ]
    },
    "coordinates": {
      "lat": "-9.110571629278201",
      "lng": "149.3163871765137"
    },
    "additionalInfo": {}
  },
  {
    "id": "36fb043e-d90a-45d9-bad7-1733d258b369",
    "name": "Takubar Wreck",
    "location": {
      "country": "Guinea",
      "region": "New Britain, Papua New Guinea",
      "ocean": [
        "Atlantic Ocean",
        "Saint George's Channel"
      ]
    },
    "coordinates": {
      "lat": "-4.335456463573485",
      "lng": "152.29162216186523"
    },
    "additionalInfo": {}
  },
  {
    "id": "38123ba5-6769-453a-be27-03a5c08e20b2",
    "name": "North Bay Reef",
    "location": {
      "country": "Guinea",
      "region": "New Britain, Papua New Guinea",
      "ocean": [
        "Pacific Ocean",
        "Bismarck Sea"
      ]
    },
    "coordinates": {
      "lat": "-5.142921261354991",
      "lng": "150.230827331543"
    },
    "additionalInfo": {}
  },
  {
    "id": "3a2e05fe-25ed-4b84-9dd4-30eec1bd7013",
    "name": "Maro Reef",
    "location": {
      "country": "Guinea",
      "region": "New Britain, Papua New Guinea",
      "ocean": [
        "Pacific Ocean",
        "Bismarck Sea"
      ]
    },
    "coordinates": {
      "lat": "-5.280195479299486",
      "lng": "150.09633064270022"
    },
    "additionalInfo": {}
  },
  {
    "id": "3d4d1d7e-52dd-41cb-8ed2-1ee51cde2752",
    "name": "Clancy",
    "location": {
      "country": "Guinea",
      "region": "Papua New Guinea, Melanesia",
      "ocean": [
        "Pacific Ocean",
        "Java Sea",
        "Oro Bay"
      ]
    },
    "coordinates": {
      "lat": "-9.061923028391188",
      "lng": "149.48435783386233"
    },
    "additionalInfo": {}
  },
  {
    "id": "3f87f1ae-911f-43f1-b81a-295ad28e494b",
    "name": "Eastern Fields",
    "location": {
      "country": "Guinea",
      "region": "Papua New Guinea, Melanesia",
      "ocean": [
        "Oceania",
        "Melanesia",
        "Papua New Guinea"
      ]
    },
    "coordinates": {
      "lat": "-9.641876897994589",
      "lng": "147.27310180664065"
    },
    "additionalInfo": {}
  },
  {
    "id": "40841e73-62f5-440a-a9fc-1422ad02289f",
    "name": "Ells",
    "location": {
      "country": "Guinea",
      "region": "Papua New Guinea, Melanesia",
      "ocean": [
        "Pacific Ocean",
        "Java Sea",
        "Oro Bay"
      ]
    },
    "coordinates": {
      "lat": "-9.065313388771576",
      "lng": "149.48710441589358"
    },
    "additionalInfo": {}
  },
  {
    "id": "41817450-0617-4a29-be06-c3e9be73c417",
    "name": "Yogi&#039;s Knob",
    "location": {
      "country": "Guinea",
      "region": "New Britain, Papua New Guinea",
      "ocean": [
        "Atlantic Ocean",
        "Saint George's Channel"
      ]
    },
    "coordinates": {
      "lat": "-4.293689790410147",
      "lng": "151.99619293212893"
    },
    "additionalInfo": {}
  },
  {
    "id": "41b00166-dacb-4399-b2fe-6481c0123950",
    "name": "Minor",
    "location": {
      "country": "Guinea",
      "region": "Papua New Guinea, Melanesia",
      "ocean": [
        "Pacific Ocean",
        "Java Sea",
        "Oro Bay"
      ]
    },
    "coordinates": {
      "lat": "-9.062092547170234",
      "lng": "149.44762229919436"
    },
    "additionalInfo": {}
  },
  {
    "id": "45d7907f-4063-4d9b-a5d8-67fa7b577220",
    "name": "Joys",
    "location": {
      "country": "Guinea",
      "region": "New Britain, Papua New Guinea",
      "ocean": [
        "Pacific Ocean",
        "Bismarck Sea"
      ]
    },
    "coordinates": {
      "lat": "-5.296092039023835",
      "lng": "150.1004505157471"
    },
    "additionalInfo": {}
  },
  {
    "id": "47d8e165-21c9-490d-8441-a44e6e0a269e",
    "name": "Don&#039;s Reef",
    "location": {
      "country": "Guinea",
      "region": "Papua New Guinea, Melanesia",
      "ocean": [
        "Pacific Ocean",
        "Java Sea",
        "Oro Bay"
      ]
    },
    "coordinates": {
      "lat": "-9.138706823350459",
      "lng": "149.30746078491214"
    },
    "additionalInfo": {}
  },
  {
    "id": "49b3c1da-ed54-4802-8795-4cb9f365ba42",
    "name": "Turtle Reef",
    "location": {
      "country": "Guinea",
      "region": "Tsoilaunung Island, New Ireland Island",
      "ocean": [
        "Pacific Ocean",
        "Steffen Strait"
      ]
    },
    "coordinates": {
      "lat": "-2.541471171843191",
      "lng": "150.57415008544925"
    },
    "additionalInfo": {}
  },
  {
    "id": "4aafee32-a57d-40d3-ac5e-da8424acd2c3",
    "name": "The Hump",
    "location": {
      "country": "Guinea",
      "region": "New Britain, Papua New Guinea",
      "ocean": [
        "Atlantic Ocean",
        "Saint George's Channel"
      ]
    },
    "coordinates": {
      "lat": "-4.1034859162932635",
      "lng": "152.21772193908694"
    },
    "additionalInfo": {}
  },
  {
    "id": "4c7a0b82-ce54-4ad4-a3eb-ff8c1f5ed20b",
    "name": "Micky&#039;s",
    "location": {
      "country": "Guinea",
      "region": "Papua New Guinea, Melanesia",
      "ocean": [
        "Pacific Ocean",
        "Java Sea",
        "Oro Bay"
      ]
    },
    "coordinates": {
      "lat": "-9.071076927951664",
      "lng": "149.4493389129639"
    },
    "additionalInfo": {}
  },
  {
    "id": "4f4b8e27-c75f-4169-9bd7-efeea9428ec3",
    "name": "Blue Ribbon",
    "location": {
      "country": "Guinea",
      "region": "Papua New Guinea, Melanesia",
      "ocean": [
        "Pacific Ocean",
        "Java Sea",
        "Oro Bay"
      ]
    },
    "coordinates": {
      "lat": "-9.087180443666833",
      "lng": "149.30780410766604"
    },
    "additionalInfo": {}
  },
  {
    "id": "53def500-925d-427f-969e-0e522b061906",
    "name": "Lauila&#039;s Reef",
    "location": {
      "country": "Guinea",
      "region": "New Britain, Papua New Guinea",
      "ocean": [
        "Pacific Ocean",
        "Bismarck Sea"
      ]
    },
    "coordinates": {
      "lat": "-5.306005815592772",
      "lng": "150.13100624084475"
    },
    "additionalInfo": {}
  },
  {
    "id": "547bc7aa-f06b-45d4-9a7b-814febea3d1a",
    "name": "Pigmie Point",
    "location": {
      "country": "Guinea",
      "region": "New Britain, Papua New Guinea",
      "ocean": [
        "Atlantic Ocean",
        "Saint George's Channel"
      ]
    },
    "coordinates": {
      "lat": "-4.166321652852895",
      "lng": "151.90984725952148"
    },
    "additionalInfo": {}
  },
  {
    "id": "59f776d0-ece5-4972-ae19-fac1a84a3435",
    "name": "Observation Point",
    "location": {
      "country": "Guinea",
      "region": "Normanby Island, Papua New Guinea",
      "ocean": [
        "Pacific Ocean",
        "Solomon Sea",
        "Swinger Bay"
      ]
    },
    "coordinates": {
      "lat": "-9.74154239811809",
      "lng": "150.732421875"
    },
    "additionalInfo": {}
  },
  {
    "id": "5b02a0a7-1ab5-47d2-968f-f5fa43a28b1c",
    "name": "Magic Passage",
    "location": {
      "country": "Guinea",
      "region": "Papua New Guinea, Melanesia",
      "ocean": [
        "Pacific Ocean",
        "Bismarck Sea",
        "Astrolabe Bay"
      ]
    },
    "coordinates": {
      "lat": "-5.073161573666529",
      "lng": "145.8194732666016"
    },
    "additionalInfo": {}
  },
  {
    "id": "5c476673-17c2-41cd-90d8-bc3e38a9ca7e",
    "name": "Giants At Home",
    "location": {
      "country": "Guinea",
      "region": "Sariba Island, Papua New Guinea",
      "ocean": [
        "Pacific Ocean",
        "Solomon Sea",
        "Milne Bay"
      ]
    },
    "coordinates": {
      "lat": "-10.660607953624762",
      "lng": "150.71594238281253"
    },
    "additionalInfo": {}
  },
  {
    "id": "5c6e365c-e0a2-4b57-a936-073e24d77bc0",
    "name": "End Bommie",
    "location": {
      "country": "Guinea",
      "region": "Papua New Guinea, Melanesia",
      "ocean": [
        "Oceania",
        "Melanesia",
        "Papua New Guinea"
      ]
    },
    "coordinates": {
      "lat": "-9.56812406402864",
      "lng": "147.28473186492923"
    },
    "additionalInfo": {}
  },
  {
    "id": "5cf66547-5610-40b5-bdbb-001d9c568881",
    "name": "Taun Reef",
    "location": {
      "country": "Guinea",
      "region": "New Hanover, New Ireland Island",
      "ocean": [
        "Pacific Ocean"
      ]
    },
    "coordinates": {
      "lat": "-2.4793893957642683",
      "lng": "149.93316650390628"
    },
    "additionalInfo": {}
  },
  {
    "id": "5f0584b7-da7a-4b40-b366-48bd1098ece5",
    "name": "Bradford Shoals",
    "location": {
      "country": "Guinea",
      "region": "New Britain, Papua New Guinea",
      "ocean": [
        "Pacific Ocean",
        "Bismarck Sea"
      ]
    },
    "coordinates": {
      "lat": "-5.178482088522876",
      "lng": "150.31116485595706"
    },
    "additionalInfo": {}
  },
  {
    "id": "5fd16ff9-55ad-4f50-80d1-6c2050aecc11",
    "name": "Johnnie&#039;s Jetty",
    "location": {
      "country": "Guinea",
      "region": "New Britain, Papua New Guinea",
      "ocean": [
        "Atlantic Ocean",
        "Saint George's Channel"
      ]
    },
    "coordinates": {
      "lat": "-4.332717735806342",
      "lng": "152.26999282836914"
    },
    "additionalInfo": {}
  },
  {
    "id": "62071b06-af5f-406a-98a7-a7740b671271",
    "name": "Mascotte Channel",
    "location": {
      "country": "Guinea",
      "region": "Tungelo, New Ireland Island",
      "ocean": [
        "Pacific Ocean",
        "Steffen Strait"
      ]
    },
    "coordinates": {
      "lat": "-2.66802635096377",
      "lng": "150.43424606323245"
    },
    "additionalInfo": {}
  },
  {
    "id": "62784b39-ad83-4791-b81e-8085b5c96ae9",
    "name": "Matrix",
    "location": {
      "country": "Guinea",
      "region": "Kiton Island, New Ireland Island",
      "ocean": [
        "Pacific Ocean",
        "Steffen Strait"
      ]
    },
    "coordinates": {
      "lat": "-2.675228292335312",
      "lng": "150.6230735778809"
    },
    "additionalInfo": {}
  },
  {
    "id": "62dcda5a-c0a5-402f-b534-dbf2a758e18d",
    "name": "Kate Bombers",
    "location": {
      "country": "Guinea",
      "region": "Nago Island, New Ireland Island",
      "ocean": [
        "Pacific Ocean",
        "Steffen Strait"
      ]
    },
    "coordinates": {
      "lat": "-2.60938041096365",
      "lng": "150.76761245727542"
    },
    "additionalInfo": {}
  },
  {
    "id": "699c1310-ddd7-42e7-ba80-a922de053ba5",
    "name": "Keiko&#039;s Corner",
    "location": {
      "country": "Guinea",
      "region": "Papua New Guinea, Melanesia",
      "ocean": [
        "Pacific Ocean",
        "Java Sea",
        "Oro Bay"
      ]
    },
    "coordinates": {
      "lat": "-8.997161016484009",
      "lng": "149.4544887542725"
    },
    "additionalInfo": {}
  },
  {
    "id": "6b8b58aa-6736-41e1-98b3-47c3753634fd",
    "name": "North Emma",
    "location": {
      "country": "Guinea",
      "region": "New Britain, Papua New Guinea",
      "ocean": [
        "Pacific Ocean",
        "Bismarck Sea"
      ]
    },
    "coordinates": {
      "lat": "-5.137108244573892",
      "lng": "150.07427215576175"
    },
    "additionalInfo": {}
  },
  {
    "id": "6cd782b1-19a0-4faf-9adb-c0d625fa7890",
    "name": "Lion&#039;s Island",
    "location": {
      "country": "Guinea",
      "region": "Papua New Guinea, Melanesia",
      "ocean": [
        "Oceania",
        "Melanesia",
        "Papua New Guinea"
      ]
    },
    "coordinates": {
      "lat": "-9.536341510637547",
      "lng": "147.27782249450686"
    },
    "additionalInfo": {}
  },
  {
    "id": "6cf8866b-d844-4210-9bc5-e75e81b977ca",
    "name": "Donna&#039;s Reef",
    "location": {
      "country": "Guinea",
      "region": "New Britain, Papua New Guinea",
      "ocean": [
        "Pacific Ocean",
        "Bismarck Sea"
      ]
    },
    "coordinates": {
      "lat": "-5.322243553603723",
      "lng": "150.12774467468265"
    },
    "additionalInfo": {}
  },
  {
    "id": "6d7e70f2-d3d1-4204-aefa-13e62d0224cb",
    "name": "Nancy&#039;s Reef",
    "location": {
      "country": "Guinea",
      "region": "New Britain, Papua New Guinea",
      "ocean": [
        "Pacific Ocean",
        "Bismarck Sea"
      ]
    },
    "coordinates": {
      "lat": "-5.3092533974279",
      "lng": "150.0978755950928"
    },
    "additionalInfo": {}
  },
  {
    "id": "6fc3a425-32ff-4770-9f46-8cba396b90dd",
    "name": "Cyclone",
    "location": {
      "country": "Guinea",
      "region": "Papua New Guinea, Melanesia",
      "ocean": [
        "Pacific Ocean",
        "Java Sea",
        "Oro Bay"
      ]
    },
    "coordinates": {
      "lat": "-9.065991457006952",
      "lng": "149.50701713562015"
    },
    "additionalInfo": {}
  },
  {
    "id": "70b40d47-630c-4d05-b572-767802a3e263",
    "name": "Shark Tip",
    "location": {
      "country": "Guinea",
      "region": "Papua New Guinea, Melanesia",
      "ocean": [
        "Pacific Ocean",
        "Java Sea",
        "Oro Bay"
      ]
    },
    "coordinates": {
      "lat": "-9.16277251516249",
      "lng": "149.44358825683597"
    },
    "additionalInfo": {}
  },
  {
    "id": "7187028c-b158-491d-bdfe-c5bab039061e",
    "name": "Kylee&#039;s Paradise",
    "location": {
      "country": "Guinea",
      "region": "Papua New Guinea, Melanesia",
      "ocean": [
        "Pacific Ocean",
        "Java Sea",
        "Oro Bay"
      ]
    },
    "coordinates": {
      "lat": "-8.996313269136376",
      "lng": "149.47362899780276"
    },
    "additionalInfo": {}
  },
  {
    "id": "71c03311-298a-4ce2-b8c3-6e55cdfcaded",
    "name": "Tele Reef",
    "location": {
      "country": "Guinea",
      "region": "New Britain, Papua New Guinea",
      "ocean": [
        "Pacific Ocean",
        "Bismarck Sea"
      ]
    },
    "coordinates": {
      "lat": "-5.32207263227595",
      "lng": "150.08706092834475"
    },
    "additionalInfo": {}
  },
  {
    "id": "740c6cc8-f7b1-455b-85e5-1c79c5dc6da8",
    "name": "Reimer&#039;s Reef",
    "location": {
      "country": "Guinea",
      "region": "New Britain, Papua New Guinea",
      "ocean": [
        "Atlantic Ocean",
        "Saint George's Channel"
      ]
    },
    "coordinates": {
      "lat": "-4.163582324296021",
      "lng": "151.91885948181152"
    },
    "additionalInfo": {}
  },
  {
    "id": "751ccd0f-3815-4843-9a57-ebe0957a2cd3",
    "name": "Geoffry&#039;s Reef",
    "location": {
      "country": "Guinea",
      "region": "New Britain, Papua New Guinea",
      "ocean": [
        "Pacific Ocean",
        "Bismarck Sea"
      ]
    },
    "coordinates": {
      "lat": "-5.2704522250113905",
      "lng": "150.1253414154053"
    },
    "additionalInfo": {}
  },
  {
    "id": "76413230-1634-490f-bce3-f99bbfdc99de",
    "name": "South Bay Reef",
    "location": {
      "country": "Guinea",
      "region": "New Britain, Papua New Guinea",
      "ocean": [
        "Pacific Ocean",
        "Bismarck Sea"
      ]
    },
    "coordinates": {
      "lat": "-5.16070192410788",
      "lng": "150.26653289794925"
    },
    "additionalInfo": {}
  },
  {
    "id": "79c8837a-1023-45c2-bd49-640b72a454f5",
    "name": "Stewarts",
    "location": {
      "country": "Guinea",
      "region": "Papua New Guinea, Melanesia",
      "ocean": [
        "Pacific Ocean",
        "Java Sea",
        "Oro Bay"
      ]
    },
    "coordinates": {
      "lat": "-9.103961231886196",
      "lng": "149.44101333618167"
    },
    "additionalInfo": {}
  },
  {
    "id": "7a04a69d-b066-4f3c-a4c5-57155e5b69b2",
    "name": "Navahaul Drift",
    "location": {
      "country": "Guinea",
      "region": "Ribnitz Island, New Ireland Island",
      "ocean": [
        "Pacific Ocean",
        "Steffen Strait"
      ]
    },
    "coordinates": {
      "lat": "-2.6697411027399496",
      "lng": "150.6325149536133"
    },
    "additionalInfo": {}
  },
  {
    "id": "7b2e1bff-9848-4253-8390-ed71a43a3fab",
    "name": "Sanko Maru",
    "location": {
      "country": "Guinea",
      "region": "New Hanover, New Ireland Island",
      "ocean": [
        "Pacific Ocean"
      ]
    },
    "coordinates": {
      "lat": "-2.370310536143135",
      "lng": "150.13126373291018"
    },
    "additionalInfo": {}
  },
  {
    "id": "7e58d6a2-b0e0-40cd-a4ab-26c79a382030",
    "name": "Bev&#039;s",
    "location": {
      "country": "Guinea",
      "region": "Papua New Guinea, Melanesia",
      "ocean": [
        "Pacific Ocean",
        "Java Sea",
        "Oro Bay"
      ]
    },
    "coordinates": {
      "lat": "-9.075314765358186",
      "lng": "149.45071220397952"
    },
    "additionalInfo": {}
  },
  {
    "id": "81dcb550-3d59-4da4-b027-7402010d26de",
    "name": "Espanol",
    "location": {
      "country": "Guinea",
      "region": "Papua New Guinea, Melanesia",
      "ocean": [
        "Pacific Ocean",
        "Java Sea",
        "Oro Bay"
      ]
    },
    "coordinates": {
      "lat": "-9.120402250467745",
      "lng": "149.51396942138675"
    },
    "additionalInfo": {}
  },
  {
    "id": "829f8bd0-3e08-44a1-9a34-1f5ab82070e1",
    "name": "Kirsty Jayne&#039;s Reef",
    "location": {
      "country": "Guinea",
      "region": "New Britain, Papua New Guinea",
      "ocean": [
        "Pacific Ocean",
        "Bismarck Sea"
      ]
    },
    "coordinates": {
      "lat": "-5.31267188614228",
      "lng": "150.12843132019046"
    },
    "additionalInfo": {}
  },
  {
    "id": "82c18927-54b9-4d31-9ab1-34e96e5fa0c5",
    "name": "Mv Luanga",
    "location": {
      "country": "Guinea",
      "region": "New Britain, Papua New Guinea",
      "ocean": [
        "Pacific Ocean",
        "Bismarck Sea"
      ]
    },
    "coordinates": {
      "lat": "-5.422566124736762",
      "lng": "150.08860588073733"
    },
    "additionalInfo": {}
  },
  {
    "id": "839cee2d-4502-4d96-91d2-b4900985ce35",
    "name": "Richy&#039;s ",
    "location": {
      "country": "Guinea",
      "region": "Papua New Guinea, Melanesia",
      "ocean": [
        "Pacific Ocean",
        "Java Sea",
        "Oro Bay"
      ]
    },
    "coordinates": {
      "lat": "-9.12277511847346",
      "lng": "149.48985099792483"
    },
    "additionalInfo": {}
  },
  {
    "id": "83deff98-d854-483b-9cd9-571deffe0791",
    "name": "Catalina Floatplane",
    "location": {
      "country": "Guinea",
      "region": "Nusalik, New Ireland Island",
      "ocean": [
        "Pacific Ocean",
        "Steffen Strait"
      ]
    },
    "coordinates": {
      "lat": "-2.563121921509302",
      "lng": "150.78602313995364"
    },
    "additionalInfo": {}
  },
  {
    "id": "83f4075c-b84e-427d-aaf2-fca8bc3c49a5",
    "name": "Byron&#039;s Strait",
    "location": {
      "country": "Guinea",
      "region": "Nuselawa Island, New Ireland Island",
      "ocean": [
        "Pacific Ocean",
        "Steffen Strait"
      ]
    },
    "coordinates": {
      "lat": "-2.667083236467426",
      "lng": "150.50265312194827"
    },
    "additionalInfo": {}
  },
  {
    "id": "8415a01a-90d8-4030-9fae-042a6d0c93a6",
    "name": "Bermuda Drop",
    "location": {
      "country": "Guinea",
      "region": "Baudisson Island, New Ireland Island",
      "ocean": [
        "Pacific Ocean",
        "Steffen Strait"
      ]
    },
    "coordinates": {
      "lat": "-2.746730968518139",
      "lng": "150.67045211791995"
    },
    "additionalInfo": {}
  },
  {
    "id": "847e243d-cca8-4e43-82c0-67d26f309770",
    "name": "Albatross Passage",
    "location": {
      "country": "Guinea",
      "region": "Baudisson Island, New Ireland Island",
      "ocean": [
        "Pacific Ocean",
        "Steffen Strait"
      ]
    },
    "coordinates": {
      "lat": "-2.7487028047186173",
      "lng": "150.7162857055664"
    },
    "additionalInfo": {}
  },
  {
    "id": "85862981-919f-4a8a-9806-709f11c39494",
    "name": "The Pinnacle",
    "location": {
      "country": "Guinea",
      "region": "Papua New Guinea, Melanesia",
      "ocean": [
        "Oceania",
        "Melanesia",
        "Papua New Guinea"
      ]
    },
    "coordinates": {
      "lat": "-9.602273242385461",
      "lng": "147.3161888122559"
    },
    "additionalInfo": {}
  },
  {
    "id": "87ab9afa-3992-4be6-96c8-dd963b2e797f",
    "name": "Don&#039;s Bommie",
    "location": {
      "country": "Guinea",
      "region": "Papua New Guinea, Melanesia",
      "ocean": [
        "Pacific Ocean",
        "Java Sea",
        "Oro Bay"
      ]
    },
    "coordinates": {
      "lat": "-9.137689927296265",
      "lng": "149.31261062622073"
    },
    "additionalInfo": {}
  },
  {
    "id": "87d8d733-83a6-4297-83ae-72e2e2aee41b",
    "name": "Charmaines Reef",
    "location": {
      "country": "Guinea",
      "region": "New Britain, Papua New Guinea",
      "ocean": [
        "Pacific Ocean",
        "Bismarck Sea"
      ]
    },
    "coordinates": {
      "lat": "-5.235922270597775",
      "lng": "150.1077461242676"
    },
    "additionalInfo": {}
  },
  {
    "id": "8a1dd1c7-3b3c-48ca-890c-b904b84550a0",
    "name": "Joeile&#039;s",
    "location": {
      "country": "Guinea",
      "region": "New Britain, Papua New Guinea",
      "ocean": [
        "Pacific Ocean",
        "Bismarck Sea"
      ]
    },
    "coordinates": {
      "lat": "-5.191474969470683",
      "lng": "150.17023086547854"
    },
    "additionalInfo": {}
  },
  {
    "id": "8ad81acd-ef5b-4a50-92b5-54449002bbfe",
    "name": "Black Jack",
    "location": {
      "country": "Guinea",
      "region": "Papua New Guinea, Melanesia",
      "ocean": [
        "Pacific Ocean",
        "Ward Hunt Strait"
      ]
    },
    "coordinates": {
      "lat": "-9.658969347906899",
      "lng": "150.0444030761719"
    },
    "additionalInfo": {}
  },
  {
    "id": "8c4cf0d2-eee8-497d-b6e2-19b6e9df0c2f",
    "name": "Dinah&#039;s Beach",
    "location": {
      "country": "Guinea",
      "region": "Papua New Guinea, Melanesia",
      "ocean": [
        "Pacific Ocean",
        "Solomon Sea",
        "Swinger Bay"
      ]
    },
    "coordinates": {
      "lat": "-10.268303010697737",
      "lng": "150.67749023437503"
    },
    "additionalInfo": {}
  },
  {
    "id": "8e9e4742-adb7-4218-8fe4-6e26723df9df",
    "name": "Jake&#039;s Bomber",
    "location": {
      "country": "Guinea",
      "region": "Anelaua Island, New Ireland Island",
      "ocean": [
        "Pacific Ocean",
        "Steffen Strait"
      ]
    },
    "coordinates": {
      "lat": "-2.5861013263856787",
      "lng": "150.48196792602542"
    },
    "additionalInfo": {}
  },
  {
    "id": "94bb0cee-5602-4376-8b5d-2ec365a13adb",
    "name": "Pommie",
    "location": {
      "country": "Guinea",
      "region": "Papua New Guinea, Melanesia",
      "ocean": [
        "Pacific Ocean",
        "Java Sea",
        "Oro Bay"
      ]
    },
    "coordinates": {
      "lat": "-9.027509061919455",
      "lng": "149.49388504028323"
    },
    "additionalInfo": {}
  },
  {
    "id": "94e3379b-3d48-4589-a440-edaeffc43dc8",
    "name": "Dick",
    "location": {
      "country": "Guinea",
      "region": "New Britain, Papua New Guinea",
      "ocean": [
        "Atlantic Ocean",
        "Saint George's Channel"
      ]
    },
    "coordinates": {
      "lat": "-4.193714412679232",
      "lng": "151.9718170166016"
    },
    "additionalInfo": {}
  },
  {
    "id": "96f37db4-b98b-44a3-a6c3-3034169c1504",
    "name": "Margaretts Reef",
    "location": {
      "country": "Guinea",
      "region": "New Britain, Papua New Guinea",
      "ocean": [
        "Pacific Ocean",
        "Bismarck Sea"
      ]
    },
    "coordinates": {
      "lat": "-5.412312447988889",
      "lng": "150.3381156921387"
    },
    "additionalInfo": {}
  },
  {
    "id": "97be315f-40f7-4e0f-b5f2-e0b1bc69f800",
    "name": "Kavin Ii",
    "location": {
      "country": "Guinea",
      "region": "New Ireland Island, Papua New Guinea",
      "ocean": [
        "Pacific Ocean",
        "Bismarck Sea"
      ]
    },
    "coordinates": {
      "lat": "-2.7904535244460145",
      "lng": "150.8082962036133"
    },
    "additionalInfo": {}
  },
  {
    "id": "9c2d23b9-e2e9-4d3a-8ebf-b05f1317ca31",
    "name": "Nusa Blowholes",
    "location": {
      "country": "Guinea",
      "region": "Nusalik, New Ireland Island",
      "ocean": [
        "Pacific Ocean",
        "Steffen Strait"
      ]
    },
    "coordinates": {
      "lat": "-2.567023304873204",
      "lng": "150.77653884887698"
    },
    "additionalInfo": {}
  },
  {
    "id": "9cdcfed1-a362-40a5-891e-ca7d41947479",
    "name": "Ewey&#039;s",
    "location": {
      "country": "Guinea",
      "region": "Papua New Guinea, Melanesia",
      "ocean": [
        "Pacific Ocean",
        "Java Sea",
        "Oro Bay"
      ]
    },
    "coordinates": {
      "lat": "-9.071076927951664",
      "lng": "149.4423866271973"
    },
    "additionalInfo": {}
  },
  {
    "id": "9ef06c11-f10d-4814-9447-ba0b9ddca841",
    "name": "May Reef",
    "location": {
      "country": "Guinea",
      "region": "New Britain, Papua New Guinea",
      "ocean": [
        "Pacific Ocean",
        "Bismarck Sea"
      ]
    },
    "coordinates": {
      "lat": "-5.232503359267955",
      "lng": "150.4696083068848"
    },
    "additionalInfo": {}
  },
  {
    "id": "9f5aa78a-2152-4304-abbb-4c0358ad8726",
    "name": "Babs",
    "location": {
      "country": "Guinea",
      "region": "Papua New Guinea, Melanesia",
      "ocean": [
        "Pacific Ocean",
        "Java Sea",
        "Oro Bay"
      ]
    },
    "coordinates": {
      "lat": "-9.07361963640237",
      "lng": "149.46075439453128"
    },
    "additionalInfo": {}
  },
  {
    "id": "a0ea1205-2ad6-4d8e-a360-b887134c79b8",
    "name": "Deep Pete",
    "location": {
      "country": "Guinea",
      "region": "Nago Island, New Ireland Island",
      "ocean": [
        "Pacific Ocean",
        "Steffen Strait"
      ]
    },
    "coordinates": {
      "lat": "-2.596604833874682",
      "lng": "150.7643508911133"
    },
    "additionalInfo": {}
  },
  {
    "id": "a25e63d1-0d5f-434d-ae7e-467254b9d1bc",
    "name": "Harry",
    "location": {
      "country": "Guinea",
      "region": "New Britain, Papua New Guinea",
      "ocean": [
        "Atlantic Ocean",
        "Saint George's Channel"
      ]
    },
    "coordinates": {
      "lat": "-4.189776762405011",
      "lng": "151.97713851928714"
    },
    "additionalInfo": {}
  },
  {
    "id": "a26d4844-080e-4776-b700-396753fbe015",
    "name": "Zero",
    "location": {
      "country": "Guinea",
      "region": "New Britain, Papua New Guinea",
      "ocean": [
        "Pacific Ocean",
        "Bismarck Sea"
      ]
    },
    "coordinates": {
      "lat": "-5.178482088522876",
      "lng": "150.06706237792972"
    },
    "additionalInfo": {}
  },
  {
    "id": "a2db6006-cf5d-4d97-b99b-c049de52235f",
    "name": "Vanessa&#039;s Reef",
    "location": {
      "country": "Guinea",
      "region": "New Britain, Papua New Guinea",
      "ocean": [
        "Pacific Ocean",
        "Bismarck Sea"
      ]
    },
    "coordinates": {
      "lat": "-5.297117609496196",
      "lng": "150.13152122497561"
    },
    "additionalInfo": {}
  },
  {
    "id": "a4a0adc9-e119-46e4-a0ba-7698a5f9d813",
    "name": "Ilhéu De Santana North",
    "location": {
      "country": "Guinea",
      "region": "Atlantic Ocean",
      "ocean": [
        "Atlantic Ocean",
        "Gulf Of Guinea",
        "São Tomé And Príncipe",
        "Ilhéu Das Rolas"
      ]
    },
    "coordinates": {
      "lat": "0.2422092707688815",
      "lng": "6.758458410040476"
    },
    "additionalInfo": {}
  },
  {
    "id": "a5e5e0d7-eb57-4ba0-abcc-b566a974fae4",
    "name": "Father&#039;s Reef",
    "location": {
      "country": "Guinea",
      "region": "New Britain, Papua New Guinea",
      "ocean": [
        "Pacific Ocean",
        "Bismarck Sea"
      ]
    },
    "coordinates": {
      "lat": "-4.944565211572528",
      "lng": "150.8903503417969"
    },
    "additionalInfo": {}
  },
  {
    "id": "a661ce15-6d64-4430-b53a-1ae889285997",
    "name": "Anne Sophie&#039;s",
    "location": {
      "country": "Guinea",
      "region": "New Britain, Papua New Guinea",
      "ocean": [
        "Pacific Ocean",
        "Bismarck Sea"
      ]
    },
    "coordinates": {
      "lat": "-5.104622764680057",
      "lng": "150.16422271728518"
    },
    "additionalInfo": {}
  },
  {
    "id": "a77870db-1804-4706-a14a-3339ce5fb2b4",
    "name": "Susan&#039;s Reef",
    "location": {
      "country": "Guinea",
      "region": "New Britain, Papua New Guinea",
      "ocean": [
        "Pacific Ocean",
        "Bismarck Sea"
      ]
    },
    "coordinates": {
      "lat": "-5.290964161143131",
      "lng": "150.13529777526858"
    },
    "additionalInfo": {}
  },
  {
    "id": "a814103a-1fc3-414e-9946-fcbb3a88a862",
    "name": "Otto&#039;s Reef",
    "location": {
      "country": "Guinea",
      "region": "New Britain, Papua New Guinea",
      "ocean": [
        "Pacific Ocean",
        "Bismarck Sea"
      ]
    },
    "coordinates": {
      "lat": "-5.324123685073965",
      "lng": "150.29399871826175"
    },
    "additionalInfo": {}
  },
  {
    "id": "ab04694d-b07d-478f-9e8c-c7914abdd828",
    "name": "Dyers Reef",
    "location": {
      "country": "Guinea",
      "region": "Papua New Guinea, Melanesia",
      "ocean": [
        "Pacific Ocean",
        "Java Sea",
        "Oro Bay"
      ]
    },
    "coordinates": {
      "lat": "-9.146163972348372",
      "lng": "149.32874679565433"
    },
    "additionalInfo": {}
  },
  {
    "id": "ae02d466-9ca6-44bd-9e4c-81e580dc1399",
    "name": "Hogu Reef",
    "location": {
      "country": "Guinea",
      "region": "New Britain, Papua New Guinea",
      "ocean": [
        "Pacific Ocean",
        "Bismarck Sea"
      ]
    },
    "coordinates": {
      "lat": "-5.358648711419927",
      "lng": "150.35905838012698"
    },
    "additionalInfo": {}
  },
  {
    "id": "ae55eff8-d4cc-4266-acce-9fdf0d636446",
    "name": "Danny&#039;s Bommie",
    "location": {
      "country": "Guinea",
      "region": "Manne Island, New Ireland Island",
      "ocean": [
        "Pacific Ocean",
        "Steffen Strait"
      ]
    },
    "coordinates": {
      "lat": "-2.755989997172146",
      "lng": "150.71989059448245"
    },
    "additionalInfo": {}
  },
  {
    "id": "aec3dc2f-472f-41cc-b15d-7ba82f41526a",
    "name": "Kimbe Bommie",
    "location": {
      "country": "Guinea",
      "region": "New Britain, Papua New Guinea",
      "ocean": [
        "Pacific Ocean",
        "Bismarck Sea"
      ]
    },
    "coordinates": {
      "lat": "-5.203783767659064",
      "lng": "150.37158966064456"
    },
    "additionalInfo": {}
  },
  {
    "id": "aedd30ab-6c27-4eca-9a54-7fc1559020bf",
    "name": "Kasa",
    "location": {
      "country": "Guinea",
      "region": "Papua New Guinea, Melanesia",
      "ocean": [
        "Pacific Ocean",
        "Java Sea",
        "Oro Bay"
      ]
    },
    "coordinates": {
      "lat": "-9.125825925578445",
      "lng": "149.49869155883792"
    },
    "additionalInfo": {}
  },
  {
    "id": "af5033f5-3981-4142-b337-ea5313b6332c",
    "name": "Jasons",
    "location": {
      "country": "Guinea",
      "region": "Papua New Guinea, Melanesia",
      "ocean": [
        "Pacific Ocean",
        "Java Sea",
        "Oro Bay"
      ]
    },
    "coordinates": {
      "lat": "-8.993430913301443",
      "lng": "149.49920654296878"
    },
    "additionalInfo": {}
  },
  {
    "id": "af605bca-6c48-4837-b616-cd13e458f3d8",
    "name": "Marians",
    "location": {
      "country": "Guinea",
      "region": "Papua New Guinea, Melanesia",
      "ocean": [
        "Pacific Ocean",
        "Java Sea",
        "Oro Bay"
      ]
    },
    "coordinates": {
      "lat": "-9.080230594024044",
      "lng": "149.45603370666507"
    },
    "additionalInfo": {}
  },
  {
    "id": "af843912-7024-42cc-b204-6de04750baa1",
    "name": "Planet Channel",
    "location": {
      "country": "Guinea",
      "region": "Nuselawa Island, New Ireland Island",
      "ocean": [
        "Pacific Ocean",
        "Steffen Strait"
      ]
    },
    "coordinates": {
      "lat": "-2.6644253644514313",
      "lng": "150.49166679382327"
    },
    "additionalInfo": {}
  },
  {
    "id": "afc493e6-fa44-4758-9842-e19a996aaa7f",
    "name": "Susan&#039;s Ridge",
    "location": {
      "country": "Guinea",
      "region": "New Britain, Papua New Guinea",
      "ocean": [
        "Pacific Ocean",
        "Bismarck Sea"
      ]
    },
    "coordinates": {
      "lat": "-5.393171786473429",
      "lng": "150.0938415527344"
    },
    "additionalInfo": {}
  },
  {
    "id": "b2814df8-c71e-4807-bafe-622fbb1d0334",
    "name": "Wulu Reef",
    "location": {
      "country": "Guinea",
      "region": "New Britain, Papua New Guinea",
      "ocean": [
        "Pacific Ocean",
        "Bismarck Sea"
      ]
    },
    "coordinates": {
      "lat": "-5.367194209228587",
      "lng": "150.4593086242676"
    },
    "additionalInfo": {}
  },
  {
    "id": "b463d79b-5847-4a47-a395-93bb2f852b4e",
    "name": "Reesons Reef",
    "location": {
      "country": "Guinea",
      "region": "New Britain, Papua New Guinea",
      "ocean": [
        "Pacific Ocean",
        "Bismarck Sea"
      ]
    },
    "coordinates": {
      "lat": "-5.433503187935912",
      "lng": "150.3497886657715"
    },
    "additionalInfo": {}
  },
  {
    "id": "b56e225e-262b-40bb-8594-05914a1d35ec",
    "name": "Chapman&#039;s Reef",
    "location": {
      "country": "Guinea",
      "region": "New Hanover, New Ireland Island",
      "ocean": [
        "Pacific Ocean"
      ]
    },
    "coordinates": {
      "lat": "-2.460181181020993",
      "lng": "149.92973327636722"
    },
    "additionalInfo": {}
  },
  {
    "id": "b6acb9b7-22c0-4d27-bf22-d6b306ba5695",
    "name": "Deacon&#039;s Reef",
    "location": {
      "country": "Guinea",
      "region": "Papua New Guinea, Melanesia",
      "ocean": [
        "Pacific Ocean",
        "Solomon Sea",
        "Swinger Bay"
      ]
    },
    "coordinates": {
      "lat": "-10.271005591384222",
      "lng": "150.62736511230472"
    },
    "additionalInfo": {}
  },
  {
    "id": "b7290218-4d40-4e2f-b77c-5140086c447f",
    "name": "Christine&#039;s Reef",
    "location": {
      "country": "Guinea",
      "region": "New Britain, Papua New Guinea",
      "ocean": [
        "Pacific Ocean",
        "Bismarck Sea"
      ]
    },
    "coordinates": {
      "lat": "-5.497241795511096",
      "lng": "150.26430130004886"
    },
    "additionalInfo": {}
  },
  {
    "id": "b9a4a8e3-3a77-4e58-aa22-5cc05d7ce7e9",
    "name": "Doorstep Reef",
    "location": {
      "country": "Guinea",
      "region": "New Britain, Papua New Guinea",
      "ocean": [
        "Atlantic Ocean",
        "Saint George's Channel"
      ]
    },
    "coordinates": {
      "lat": "-4.263561589322062",
      "lng": "152.01404571533206"
    },
    "additionalInfo": {}
  },
  {
    "id": "bac2f253-c6c1-4dc3-97d9-7f9bc1e1f210",
    "name": "Schmidth",
    "location": {
      "country": "Guinea",
      "region": "Papua New Guinea, Melanesia",
      "ocean": [
        "Pacific Ocean",
        "Java Sea",
        "Oro Bay"
      ]
    },
    "coordinates": {
      "lat": "-9.1354866425536",
      "lng": "149.50813293457034"
    },
    "additionalInfo": {}
  },
  {
    "id": "bb8262d4-c681-43e9-a6ae-9018f7deb2c2",
    "name": "Mv Pai 2",
    "location": {
      "country": "Guinea",
      "region": "Papua New Guinea, Melanesia",
      "ocean": [
        "Oceania",
        "Melanesia",
        "Papua New Guinea"
      ]
    },
    "coordinates": {
      "lat": "-9.56418843613955",
      "lng": "147.27481842041018"
    },
    "additionalInfo": {}
  },
  {
    "id": "bc68e294-9537-476f-ad6f-324782f7728b",
    "name": "Baudisson&#039;s Bay",
    "location": {
      "country": "Guinea",
      "region": "Baudisson Island, New Ireland Island",
      "ocean": [
        "Pacific Ocean",
        "Steffen Strait"
      ]
    },
    "coordinates": {
      "lat": "-2.741929962420976",
      "lng": "150.6589508056641"
    },
    "additionalInfo": {}
  },
  {
    "id": "bd9b58b1-097a-4f82-ae1e-873aeb3c9208",
    "name": "T&#039;s Reef",
    "location": {
      "country": "Guinea",
      "region": "Lemus, New Ireland Island",
      "ocean": [
        "Pacific Ocean",
        "Steffen Strait"
      ]
    },
    "coordinates": {
      "lat": "-2.602864025408337",
      "lng": "150.65002441406253"
    },
    "additionalInfo": {}
  },
  {
    "id": "bee8cb4f-ccef-484d-88e9-d43b1c12f6e4",
    "name": "George&#039;s Wreck",
    "location": {
      "country": "Guinea",
      "region": "New Britain, Papua New Guinea",
      "ocean": [
        "Atlantic Ocean",
        "Saint George's Channel"
      ]
    },
    "coordinates": {
      "lat": "-4.130666835874627",
      "lng": "152.16549396514895"
    },
    "additionalInfo": {}
  },
  {
    "id": "c206abd1-cf54-4b46-9188-a57d1dcbaa83",
    "name": "Bainings Barrier Reefs",
    "location": {
      "country": "Guinea",
      "region": "New Britain, Papua New Guinea",
      "ocean": [
        "Atlantic Ocean",
        "Saint George's Channel"
      ]
    },
    "coordinates": {
      "lat": "-4.160500568273675",
      "lng": "151.79002761840823"
    },
    "additionalInfo": {}
  },
  {
    "id": "c736a92d-6aae-4c9e-86c2-7d19cd1baf97",
    "name": "The Bottleshop",
    "location": {
      "country": "Guinea",
      "region": "Nusa, New Ireland Island",
      "ocean": [
        "Pacific Ocean",
        "Steffen Strait"
      ]
    },
    "coordinates": {
      "lat": "-2.58803054857734",
      "lng": "150.78512191772464"
    },
    "additionalInfo": {}
  },
  {
    "id": "c99817a3-2391-4b74-b086-6efed4140808",
    "name": "Cape Heussner",
    "location": {
      "country": "Guinea",
      "region": "New Britain, Papua New Guinea",
      "ocean": [
        "Pacific Ocean",
        "Bismarck Sea"
      ]
    },
    "coordinates": {
      "lat": "-5.084104771062592",
      "lng": "150.186882019043"
    },
    "additionalInfo": {}
  },
  {
    "id": "ca6b10db-0223-4111-bc95-a09a7ff28059",
    "name": "Eagle Ray Passage",
    "location": {
      "country": "Guinea",
      "region": "Enang Island, New Ireland Island",
      "ocean": [
        "Pacific Ocean",
        "Steffen Strait"
      ]
    },
    "coordinates": {
      "lat": "-2.667597662646",
      "lng": "150.4897785186768"
    },
    "additionalInfo": {}
  },
  {
    "id": "cd0f02f6-5c12-4eff-8eca-fa61d9741f37",
    "name": "South Emma",
    "location": {
      "country": "Guinea",
      "region": "New Britain, Papua New Guinea",
      "ocean": [
        "Pacific Ocean",
        "Bismarck Sea"
      ]
    },
    "coordinates": {
      "lat": "-5.138134074919084",
      "lng": "150.0722122192383"
    },
    "additionalInfo": {}
  },
  {
    "id": "ce9024ff-16b3-4038-aee3-78cdab4e6c02",
    "name": "Maru Wrecks",
    "location": {
      "country": "Guinea",
      "region": "New Britain, Papua New Guinea",
      "ocean": [
        "Atlantic Ocean",
        "Saint George's Channel"
      ]
    },
    "coordinates": {
      "lat": "-4.267413271957999",
      "lng": "152.175407409668"
    },
    "additionalInfo": {}
  },
  {
    "id": "cfce6fc9-d4cd-4be3-8d11-24a794662b62",
    "name": "Bob&#039;s Knob",
    "location": {
      "country": "Guinea",
      "region": "New Britain, Papua New Guinea",
      "ocean": [
        "Pacific Ocean",
        "Bismarck Sea"
      ]
    },
    "coordinates": {
      "lat": "-5.4490539826632585",
      "lng": "150.10319709777835"
    },
    "additionalInfo": {}
  },
  {
    "id": "d4702d87-c9a4-49ea-bcd4-891c626343bc",
    "name": "Judy&#039;s Reef",
    "location": {
      "country": "Guinea",
      "region": "Nuselawa Island, New Ireland Island",
      "ocean": [
        "Pacific Ocean",
        "Steffen Strait"
      ]
    },
    "coordinates": {
      "lat": "-2.6654542188160053",
      "lng": "150.49784660339358"
    },
    "additionalInfo": {}
  },
  {
    "id": "d54298d6-3929-4794-9319-a3090ac37f57",
    "name": "Gabrielle",
    "location": {
      "country": "Guinea",
      "region": "Papua New Guinea, Melanesia",
      "ocean": [
        "Pacific Ocean",
        "Java Sea",
        "Oro Bay"
      ]
    },
    "coordinates": {
      "lat": "-9.05412507810554",
      "lng": "149.5042705535889"
    },
    "additionalInfo": {}
  },
  {
    "id": "d602cfa6-1b0d-4c65-96da-d1da44351536",
    "name": "Ema Reefs",
    "location": {
      "country": "Guinea",
      "region": "New Britain, Papua New Guinea",
      "ocean": [
        "Pacific Ocean",
        "Bismarck Sea"
      ]
    },
    "coordinates": {
      "lat": "-5.19284262558868",
      "lng": "150.14139175415042"
    },
    "additionalInfo": {}
  },
  {
    "id": "d63f4806-94e3-4a04-9e92-7eaad40b594c",
    "name": "Christine&#039;s Reef",
    "location": {
      "country": "Guinea",
      "region": "New Britain, Papua New Guinea",
      "ocean": [
        "Pacific Ocean",
        "Bismarck Sea"
      ]
    },
    "coordinates": {
      "lat": "-5.316090355890428",
      "lng": "150.12946128845218"
    },
    "additionalInfo": {}
  },
  {
    "id": "d67629fb-cf36-4831-8c2e-29f0e8db4636",
    "name": "Carter",
    "location": {
      "country": "Guinea",
      "region": "New Britain, Papua New Guinea",
      "ocean": [
        "Pacific Ocean",
        "Bismarck Sea"
      ]
    },
    "coordinates": {
      "lat": "-5.409749001623642",
      "lng": "150.09444236755374"
    },
    "additionalInfo": {}
  },
  {
    "id": "d6e95e67-224f-4553-8d34-23940d2bbe4b",
    "name": "Chamisso Channel",
    "location": {
      "country": "Guinea",
      "region": "Enang Island, New Ireland Island",
      "ocean": [
        "Pacific Ocean",
        "Steffen Strait"
      ]
    },
    "coordinates": {
      "lat": "-2.670598477730773",
      "lng": "150.4611968994141"
    },
    "additionalInfo": {}
  },
  {
    "id": "d781eeed-dd37-4b33-92af-0b8d2cca2b66",
    "name": "Deborah&#039;s Drop",
    "location": {
      "country": "Guinea",
      "region": "Papua New Guinea, Melanesia",
      "ocean": [
        "Pacific Ocean",
        "Java Sea",
        "Oro Bay"
      ]
    },
    "coordinates": {
      "lat": "-8.996143719428535",
      "lng": "149.46427345275882"
    },
    "additionalInfo": {}
  },
  {
    "id": "da9bda3d-0db5-4bff-a78f-cb5120e728fb",
    "name": "Nautilus Reef",
    "location": {
      "country": "Guinea",
      "region": "Selapiu, New Ireland Island",
      "ocean": [
        "Pacific Ocean",
        "Steffen Strait"
      ]
    },
    "coordinates": {
      "lat": "-2.7280412292732077",
      "lng": "150.60916900634768"
    },
    "additionalInfo": {}
  },
  {
    "id": "dbcd993f-b581-439e-9bf5-b09c15d7cfb4",
    "name": "Subchaser #39",
    "location": {
      "country": "Guinea",
      "region": "New Hanover, New Ireland Island",
      "ocean": [
        "Pacific Ocean"
      ]
    },
    "coordinates": {
      "lat": "-2.3857467551206795",
      "lng": "150.13641357421878"
    },
    "additionalInfo": {}
  },
  {
    "id": "dee157ba-38d0-431b-b4d0-92f729db9eaf",
    "name": "Ecucha Patch",
    "location": {
      "country": "Guinea",
      "region": "New Ireland Island, Papua New Guinea",
      "ocean": [
        "Pacific Ocean",
        "Steffen Strait"
      ]
    },
    "coordinates": {
      "lat": "-2.5582773300130177",
      "lng": "150.76452255249023"
    },
    "additionalInfo": {}
  },
  {
    "id": "e200ee69-c09d-471d-952c-883de33d25c0",
    "name": "Agu Reef",
    "location": {
      "country": "Guinea",
      "region": "New Britain, Papua New Guinea",
      "ocean": [
        "Pacific Ocean",
        "Bismarck Sea"
      ]
    },
    "coordinates": {
      "lat": "-5.3275420911973805",
      "lng": "150.3820610046387"
    },
    "additionalInfo": {}
  },
  {
    "id": "e26d15c7-c299-4af0-b09c-8edd614b65cf",
    "name": "Diversion&#039;s Drop Off",
    "location": {
      "country": "Guinea",
      "region": "Selapiu, New Ireland Island",
      "ocean": [
        "Pacific Ocean",
        "Steffen Strait"
      ]
    },
    "coordinates": {
      "lat": "-2.7074650336763093",
      "lng": "150.5636787414551"
    },
    "additionalInfo": {}
  },
  {
    "id": "e3686dad-ae4e-4500-87c6-70167516d02d",
    "name": "Pauls",
    "location": {
      "country": "Guinea",
      "region": "Papua New Guinea, Melanesia",
      "ocean": [
        "Pacific Ocean",
        "Java Sea",
        "Oro Bay"
      ]
    },
    "coordinates": {
      "lat": "-9.096842205711114",
      "lng": "149.4423866271973"
    },
    "additionalInfo": {}
  },
  {
    "id": "e4bc8fb9-c3dc-4867-9f9e-eabf847314a9",
    "name": "Lighthouse Bommie",
    "location": {
      "country": "Guinea",
      "region": "Selapiu, New Ireland Island",
      "ocean": [
        "Pacific Ocean",
        "Steffen Strait"
      ]
    },
    "coordinates": {
      "lat": "-2.6918611855644787",
      "lng": "150.62067031860354"
    },
    "additionalInfo": {}
  },
  {
    "id": "e4fc017a-6505-4c04-9f3e-78ef9fd06e18",
    "name": "The Big Drop",
    "location": {
      "country": "Guinea",
      "region": "Papua New Guinea, Melanesia",
      "ocean": [
        "Oceania",
        "Melanesia",
        "Papua New Guinea"
      ]
    },
    "coordinates": {
      "lat": "-9.573836991164836",
      "lng": "147.26314544677737"
    },
    "additionalInfo": {}
  },
  {
    "id": "e5de001b-f5bf-4c29-b0c0-cb6d233809f1",
    "name": "Wahoo Point",
    "location": {
      "country": "Guinea",
      "region": "Papua New Guinea, Melanesia",
      "ocean": [
        "Pacific Ocean",
        "Solomon Sea",
        "Swinger Bay"
      ]
    },
    "coordinates": {
      "lat": "-10.206813072484595",
      "lng": "150.58341979980472"
    },
    "additionalInfo": {}
  },
  {
    "id": "e60cdc5e-ed21-4bfb-a1fa-39e905344e61",
    "name": "Iwatti",
    "location": {
      "country": "Guinea",
      "region": "New Britain, Papua New Guinea",
      "ocean": [
        "Atlantic Ocean",
        "Saint George's Channel"
      ]
    },
    "coordinates": {
      "lat": "-4.2890679275003425",
      "lng": "152.16313362121582"
    },
    "additionalInfo": {}
  },
  {
    "id": "e8d729f8-386c-433c-beb8-51bdb2856f95",
    "name": "Lumu Reef",
    "location": {
      "country": "Guinea",
      "region": "New Britain, Papua New Guinea",
      "ocean": [
        "Pacific Ocean",
        "Bismarck Sea"
      ]
    },
    "coordinates": {
      "lat": "-5.24874302148103",
      "lng": "150.1443958282471"
    },
    "additionalInfo": {}
  },
  {
    "id": "e9ce83e4-1484-494e-9f33-8b6ef05db325",
    "name": "Tom",
    "location": {
      "country": "Guinea",
      "region": "New Britain, Papua New Guinea",
      "ocean": [
        "Atlantic Ocean",
        "Saint George's Channel"
      ]
    },
    "coordinates": {
      "lat": "-4.200562452839261",
      "lng": "151.966667175293"
    },
    "additionalInfo": {}
  },
  {
    "id": "eb044a15-1e59-4720-b467-1c17ed0f55ff",
    "name": "First Reef",
    "location": {
      "country": "Guinea",
      "region": "New Britain, Papua New Guinea",
      "ocean": [
        "Pacific Ocean",
        "Bismarck Sea"
      ]
    },
    "coordinates": {
      "lat": "-5.42427505393553",
      "lng": "150.09907722473147"
    },
    "additionalInfo": {}
  },
  {
    "id": "ee955234-86b6-4c56-a99a-0ff2842696c9",
    "name": "Wwii Plane Wrecks",
    "location": {
      "country": "Guinea",
      "region": "Nago Island, New Ireland Island",
      "ocean": [
        "Pacific Ocean",
        "Steffen Strait"
      ]
    },
    "coordinates": {
      "lat": "-2.596519091309443",
      "lng": "150.7753372192383"
    },
    "additionalInfo": {}
  },
  {
    "id": "f0c98b20-87aa-4fb0-8e94-6f77646d06fe",
    "name": "Kaplaman Reef",
    "location": {
      "country": "Guinea",
      "region": "New Ireland Island, Papua New Guinea",
      "ocean": [
        "Oceania",
        "Melanesia",
        "Papua New Guinea",
        "New Ireland Island"
      ]
    },
    "coordinates": {
      "lat": "-2.604235898854237",
      "lng": "150.86391448974612"
    },
    "additionalInfo": {}
  },
  {
    "id": "f5ed59f0-46f1-49dd-993b-1c68ff32f3a2",
    "name": "Black Jack",
    "location": {
      "country": "Guinea",
      "region": "Papua New Guinea, Melanesia",
      "ocean": [
        "Pacific Ocean",
        "Java Sea",
        "Oro Bay"
      ]
    },
    "coordinates": {
      "lat": "-9.138367858321645",
      "lng": "149.3383598327637"
    },
    "additionalInfo": {}
  },
  {
    "id": "f747c2d9-0603-4992-9770-b81a425a633e",
    "name": "Mitchel Bomber",
    "location": {
      "country": "Guinea",
      "region": "Papua New Guinea, Melanesia",
      "ocean": [
        "Pacific Ocean",
        "Bismarck Sea",
        "Astrolabe Bay"
      ]
    },
    "coordinates": {
      "lat": "-5.224297895871773",
      "lng": "145.81775665283206"
    },
    "additionalInfo": {}
  },
  {
    "id": "f7a61d75-bbf4-401b-b8a4-1a19790ca921",
    "name": "Lighthouse",
    "location": {
      "country": "Guinea",
      "region": "New Britain, Papua New Guinea",
      "ocean": [
        "Atlantic Ocean",
        "Saint George's Channel"
      ]
    },
    "coordinates": {
      "lat": "-4.201932053660791",
      "lng": "151.94263458251953"
    },
    "additionalInfo": {}
  },
  {
    "id": "fc4f7437-fa9a-46c6-b0cc-05c488b565f2",
    "name": "Cray",
    "location": {
      "country": "Guinea",
      "region": "Papua New Guinea, Melanesia",
      "ocean": [
        "Pacific Ocean",
        "Java Sea",
        "Oro Bay"
      ]
    },
    "coordinates": {
      "lat": "-9.030899746535205",
      "lng": "149.45603370666507"
    },
    "additionalInfo": {}
  },
  {
    "id": "fd2f8e5f-3791-42e1-9b36-ef7e8f6e22a7",
    "name": "Suzzie&#039;s Bommie",
    "location": {
      "country": "Guinea",
      "region": "Papua New Guinea, Melanesia",
      "ocean": [
        "Oceania",
        "Melanesia",
        "Papua New Guinea"
      ]
    },
    "coordinates": {
      "lat": "-9.560464359204218",
      "lng": "147.25009918212893"
    },
    "additionalInfo": {}
  },
  {
    "id": "fe153f63-2ece-47fe-92ed-293240ff249d",
    "name": "Kashi Maru",
    "location": {
      "country": "Guinea",
      "region": "New Hanover, New Ireland Island",
      "ocean": [
        "Pacific Ocean"
      ]
    },
    "coordinates": {
      "lat": "-2.3922642178429325",
      "lng": "150.11684417724612"
    },
    "additionalInfo": {}
  },
  {
    "id": "fe6e15de-8855-4b18-b314-759c7162f8a0",
    "name": "Peter&#039;s Patch",
    "location": {
      "country": "Guinea",
      "region": "Baudisson Island, New Ireland Island",
      "ocean": [
        "Pacific Ocean",
        "Steffen Strait"
      ]
    },
    "coordinates": {
      "lat": "-2.7318134936852414",
      "lng": "150.61843872070315"
    },
    "additionalInfo": {}
  },
  {
    "id": "fedfd84b-9f09-4c12-8440-599eb3857157",
    "name": "Inglis Shoal",
    "location": {
      "country": "Guinea",
      "region": "New Britain, Papua New Guinea",
      "ocean": [
        "Pacific Ocean",
        "Bismarck Sea"
      ]
    },
    "coordinates": {
      "lat": "-5.230452003501331",
      "lng": "150.15254974365237"
    },
    "additionalInfo": {}
  },
  {
    "id": "ffb5bbb0-c080-4b69-a822-512d959a5230",
    "name": "Banana Bommie",
    "location": {
      "country": "Guinea",
      "region": "Papua New Guinea, Melanesia",
      "ocean": [
        "Pacific Ocean",
        "Solomon Sea",
        "Milne Bay"
      ]
    },
    "coordinates": {
      "lat": "-10.35680048746009",
      "lng": "150.7914733886719"
    },
    "additionalInfo": {}
  }
]