[
  {
    "id": "00035ca1-2dd4-4c6c-a8f8-f411ac835df7",
    "name": "Barracuda",
    "location": {
      "country": "Indonesia",
      "region": "Tolandona, Wakatobi Regency",
      "ocean": [
        "Pacific Ocean",
        "Banda Sea"
      ]
    },
    "coordinates": {
      "lat": "-5.783915918725872",
      "lng": "123.91836762428285"
    },
    "additionalInfo": {}
  },
  {
    "id": "0020ec62-4eb8-4319-82ad-76e3a66e1a3d",
    "name": "Bullocki",
    "location": {
      "country": "Indonesia",
      "region": "Waleabahi, Tojo Una-Una",
      "ocean": [
        "Pacific Ocean",
        "Molucca Sea",
        "Gulf Of Tomini"
      ]
    },
    "coordinates": {
      "lat": "-0.23757866489040264",
      "lng": "122.31697082519533"
    },
    "additionalInfo": {}
  },
  {
    "id": "0085c79a-fe58-4bf5-95c7-b4a9e5ab3701",
    "name": "Fish Wall",
    "location": {
      "country": "Indonesia",
      "region": "Binongko, Wakatobi Regency",
      "ocean": [
        "Pacific Ocean",
        "Banda Sea"
      ]
    },
    "coordinates": {
      "lat": "-5.901042554912292",
      "lng": "123.97573471069337"
    },
    "additionalInfo": {}
  },
  {
    "id": "01031923-18dd-42b4-9f72-34a3d16ff61e",
    "name": "Eel Valley",
    "location": {
      "country": "Indonesia",
      "region": "Tomia, Wakatobi Regency",
      "ocean": [
        "Pacific Ocean",
        "Banda Sea"
      ]
    },
    "coordinates": {
      "lat": "-5.7147107602692175",
      "lng": "123.9080035686493"
    },
    "additionalInfo": {}
  },
  {
    "id": "0122be88-3f6d-4bf8-902d-93c53018edc4",
    "name": "Pangugalaya",
    "location": {
      "country": "Indonesia",
      "region": "Sulawesi, Indonesia",
      "ocean": [
        "Pacific Ocean",
        "Flores Sea",
        "Selayar Strait"
      ]
    },
    "coordinates": {
      "lat": "-5.612996156539926",
      "lng": "120.47023773193361"
    },
    "additionalInfo": {}
  },
  {
    "id": "0135537f-de3f-41ca-86d2-4391ead010f1",
    "name": "Kingstownwall",
    "location": {
      "country": "Indonesia",
      "region": "Unauna, Tojo Una-Una",
      "ocean": [
        "Pacific Ocean",
        "Molucca Sea",
        "Gulf Of Tomini"
      ]
    },
    "coordinates": {
      "lat": "-0.13647066563841984",
      "lng": "121.66766166687013"
    },
    "additionalInfo": {}
  },
  {
    "id": "01967904-e804-4ea0-815c-ac1e4ca6f901",
    "name": "Tabularasa Wreck",
    "location": {
      "country": "Indonesia",
      "region": "Pramuka Island, Kepulauan Seribu",
      "ocean": [
        "Pacific Ocean"
      ]
    },
    "coordinates": {
      "lat": "-5.751956414948112",
      "lng": "106.61798000335693"
    },
    "additionalInfo": {}
  },
  {
    "id": "024af75c-d1e7-4535-863b-91e2a2cf01c7",
    "name": "Ali Reef",
    "location": {
      "country": "Indonesia",
      "region": "Tomia, Wakatobi Regency",
      "ocean": [
        "Pacific Ocean",
        "Banda Sea"
      ]
    },
    "coordinates": {
      "lat": "-5.714497249946634",
      "lng": "123.90197396278383"
    },
    "additionalInfo": {}
  },
  {
    "id": "02567ce4-2bc3-4570-8187-dd931323f6e2",
    "name": "Flasher Beach",
    "location": {
      "country": "Indonesia",
      "region": "Aiduma Island, West Papua",
      "ocean": [
        "Pacific Ocean",
        "Arafura Sea"
      ]
    },
    "coordinates": {
      "lat": "-3.921285967888465",
      "lng": "134.0091705322266"
    },
    "additionalInfo": {}
  },
  {
    "id": "0258df25-6461-4892-a7d5-727558ebce1f",
    "name": "Loe Rao Point",
    "location": {
      "country": "Indonesia",
      "region": "Bau Island, Morotai Island",
      "ocean": [
        "Pacific Ocean"
      ]
    },
    "coordinates": {
      "lat": "2.3281173292463055",
      "lng": "128.11088562011722"
    },
    "additionalInfo": {}
  },
  {
    "id": "028d8a03-dc1e-44a1-98dc-424183b34619",
    "name": "Lumantang",
    "location": {
      "country": "Indonesia",
      "region": "Maratua, Derawan",
      "ocean": [
        "Pacific Ocean",
        "Celebes Sea"
      ]
    },
    "coordinates": {
      "lat": "2.2852367598212973",
      "lng": "118.59706878662111"
    },
    "additionalInfo": {}
  },
  {
    "id": "03103f4b-54e2-4814-a7e5-d144058eaacc",
    "name": "Bahoi Beach",
    "location": {
      "country": "Indonesia",
      "region": "Thulandang, Sulawesi",
      "ocean": [
        "Pacific Ocean",
        "Celebes Sea"
      ]
    },
    "coordinates": {
      "lat": "2.319541318969038",
      "lng": "125.40026664733888"
    },
    "additionalInfo": {}
  },
  {
    "id": "031ef05b-75ef-4972-9f5f-0559008b82e0",
    "name": "Tidore W",
    "location": {
      "country": "Indonesia",
      "region": "Halmahera Island, Maluku",
      "ocean": [
        "Pacific Ocean",
        "Halmahera Sea"
      ]
    },
    "coordinates": {
      "lat": "0.31791523879079664",
      "lng": "127.98903822898866"
    },
    "additionalInfo": {}
  },
  {
    "id": "032be49e-1b07-4431-90ce-c7667f8788ab",
    "name": "Light House Reef Night Dive",
    "location": {
      "country": "Indonesia",
      "region": "Derawan, Kalimantan",
      "ocean": [
        "Pacific Ocean",
        "Celebes Sea"
      ]
    },
    "coordinates": {
      "lat": "1.8777679725879584",
      "lng": "118.47445964813234"
    },
    "additionalInfo": {}
  },
  {
    "id": "03432fc4-b240-4817-a95f-19ec7ed6266b",
    "name": "Malabea",
    "location": {
      "country": "Indonesia",
      "region": "Lentea, Wakatobi Regency",
      "ocean": [
        "Pacific Ocean",
        "Banda Sea"
      ]
    },
    "coordinates": {
      "lat": "-5.7996067983631825",
      "lng": "123.92578125000001"
    },
    "additionalInfo": {}
  },
  {
    "id": "037ccbcc-f748-4d93-b5ad-46bd7b07f7a0",
    "name": "Batu Selatan",
    "location": {
      "country": "Indonesia",
      "region": "Maratua, Derawan",
      "ocean": [
        "Pacific Ocean",
        "Celebes Sea"
      ]
    },
    "coordinates": {
      "lat": "2.163105961342518",
      "lng": "118.62024307250978"
    },
    "additionalInfo": {}
  },
  {
    "id": "039cd53d-0850-4fd3-ae91-f684d9393b1a",
    "name": "Octopus Garden",
    "location": {
      "country": "Indonesia",
      "region": "Moyo, Sumbawa",
      "ocean": [
        "Pacific Ocean",
        "Java Sea"
      ]
    },
    "coordinates": {
      "lat": "-8.2205547723015",
      "lng": "117.47353703393179"
    },
    "additionalInfo": {}
  },
  {
    "id": "03a31260-7112-4048-8c2f-f52685ec013a",
    "name": "Tanjung Kopi",
    "location": {
      "country": "Indonesia",
      "region": "Manadotua, Bunaken Kepulauan",
      "ocean": [
        "Pacific Ocean",
        "Celebes Sea"
      ]
    },
    "coordinates": {
      "lat": "1.651625729501754",
      "lng": "124.69746351242067"
    },
    "additionalInfo": {}
  },
  {
    "id": "041fa88a-7638-4fe1-9ff3-0f903b66e186",
    "name": "Shark Plateau",
    "location": {
      "country": "Indonesia",
      "region": "Weh Island, Banda Aceh",
      "ocean": [
        "Indian Ocean",
        "Andaman Sea"
      ]
    },
    "coordinates": {
      "lat": "5.901512121982301",
      "lng": "95.25670051574708"
    },
    "additionalInfo": {}
  },
  {
    "id": "04351f4c-274e-4e58-8831-fa86f2a4d3e8",
    "name": "Cape Kri",
    "location": {
      "country": "Indonesia",
      "region": "Kri Island, Mansuar Island",
      "ocean": [
        "Pacific Ocean",
        "Halmahera Sea"
      ]
    },
    "coordinates": {
      "lat": "-0.556860739784772",
      "lng": "130.6938743591309"
    },
    "additionalInfo": {}
  },
  {
    "id": "04385fcd-5b05-45d0-b8cd-c5a8793d0b45",
    "name": "Mister Ramli&#039;s",
    "location": {
      "country": "Indonesia",
      "region": "Liukanglu, Sulawesi",
      "ocean": [
        "Pacific Ocean",
        "Flores Sea",
        "Selayar Strait"
      ]
    },
    "coordinates": {
      "lat": "-5.6380234297475535",
      "lng": "120.42981147766115"
    },
    "additionalInfo": {}
  },
  {
    "id": "046ed35c-3391-4585-9b51-0bd9ebd3509d",
    "name": "Torro Sie",
    "location": {
      "country": "Indonesia",
      "region": "Rinca, Komodo",
      "ocean": [
        "Pacific Ocean",
        "Savu Sea",
        "Sumba Strait"
      ]
    },
    "coordinates": {
      "lat": "-8.772608713414376",
      "lng": "119.7308921813965"
    },
    "additionalInfo": {}
  },
  {
    "id": "048ef0b0-6a4a-4aff-a054-630c437890d0",
    "name": "Angel Reef, Moyo",
    "location": {
      "country": "Indonesia",
      "region": "Moyo, Sumbawa",
      "ocean": [
        "Pacific Ocean",
        "Java Sea"
      ]
    },
    "coordinates": {
      "lat": "-8.197897975919583",
      "lng": "117.42599487304688"
    },
    "additionalInfo": {}
  },
  {
    "id": "04a5f39c-4e3c-4071-97ed-b4f0a5c9a9e6",
    "name": "Starship",
    "location": {
      "country": "Indonesia",
      "region": "Wakatobi Regency, Sulawesi",
      "ocean": [
        "Pacific Ocean",
        "Banda Sea"
      ]
    },
    "coordinates": {
      "lat": "-5.78859120599156",
      "lng": "123.84544372558595"
    },
    "additionalInfo": {}
  },
  {
    "id": "05345b2a-3bc1-49d6-b74b-1dcaf3364bd2",
    "name": "Air Manis",
    "location": {
      "country": "Indonesia",
      "region": "Moyo, Sumbawa",
      "ocean": [
        "Pacific Ocean",
        "Java Sea"
      ]
    },
    "coordinates": {
      "lat": "-8.390186120686755",
      "lng": "117.51045227050783"
    },
    "additionalInfo": {}
  },
  {
    "id": "0574ead3-f770-453d-ac5f-86383347a425",
    "name": "Barracuda Reef",
    "location": {
      "country": "Indonesia",
      "region": "Groot Fam Island, Fam Islands",
      "ocean": [
        "Pacific Ocean",
        "Halmahera Sea"
      ]
    },
    "coordinates": {
      "lat": "-0.5424418476692586",
      "lng": "130.27175903320315"
    },
    "additionalInfo": {}
  },
  {
    "id": "05ac5037-b120-4ef2-aa52-a88c4a2146b5",
    "name": "Tanjung Kapota",
    "location": {
      "country": "Indonesia",
      "region": "Kambode, Wakatobi Regency",
      "ocean": [
        "Pacific Ocean",
        "Banda Sea"
      ]
    },
    "coordinates": {
      "lat": "-5.3314732347267135",
      "lng": "123.45439910888673"
    },
    "additionalInfo": {}
  },
  {
    "id": "06017a30-40de-4299-ba25-2b60503d8e96",
    "name": "Bahoi",
    "location": {
      "country": "Indonesia",
      "region": "Sulawesi, Indonesia",
      "ocean": [
        "Pacific Ocean",
        "Celebes Sea"
      ]
    },
    "coordinates": {
      "lat": "1.7377191447621394",
      "lng": "125.01123905181886"
    },
    "additionalInfo": {}
  },
  {
    "id": "0606fe73-26b2-44e1-8988-6f874d53fb1a",
    "name": "Mioswarek",
    "location": {
      "country": "Indonesia",
      "region": "Sandidori, Padaido",
      "ocean": [
        "Pacific Ocean",
        "South Pacific Ocean"
      ]
    },
    "coordinates": {
      "lat": "-1.281639965919688",
      "lng": "136.31176464457985"
    },
    "additionalInfo": {}
  },
  {
    "id": "062ae7d4-da96-4456-9eef-9a78fd5b2132",
    "name": "Mansurbabo",
    "location": {
      "country": "Indonesia",
      "region": "Pulau Urbi, Padaido",
      "ocean": [
        "Pacific Ocean",
        "South Pacific Ocean"
      ]
    },
    "coordinates": {
      "lat": "-1.3083901552118982",
      "lng": "136.36513991373974"
    },
    "additionalInfo": {}
  },
  {
    "id": "0665d0b9-1b97-4545-b057-796416201ac9",
    "name": "Tembuyung",
    "location": {
      "country": "Indonesia",
      "region": "Sangiang Island, Java",
      "ocean": [
        "Pacific Ocean",
        "Java Sea",
        "Sunda Strait"
      ]
    },
    "coordinates": {
      "lat": "-5.96326738515702",
      "lng": "105.86491227149963"
    },
    "additionalInfo": {}
  },
  {
    "id": "06a0e3f8-e389-4ccf-8b37-4e3586cf5b10",
    "name": "Marlin Hill",
    "location": {
      "country": "Indonesia",
      "region": "Gili Meno, Gili Islands",
      "ocean": [
        "Pacific Ocean",
        "Bali Sea"
      ]
    },
    "coordinates": {
      "lat": "-8.345307503159573",
      "lng": "116.06510639190675"
    },
    "additionalInfo": {}
  },
  {
    "id": "079f1620-131c-4d5c-b022-b8e9779b6f40",
    "name": "Kobe 1",
    "location": {
      "country": "Indonesia",
      "region": "Halmahera Island, Maluku",
      "ocean": [
        "Pacific Ocean",
        "Halmahera Sea"
      ]
    },
    "coordinates": {
      "lat": "0.388295062358161",
      "lng": "127.91639328002931"
    },
    "additionalInfo": {}
  },
  {
    "id": "07b4c2c3-28f6-4861-bb03-ba6f35ca7016",
    "name": "Mystic Point",
    "location": {
      "country": "Indonesia",
      "region": "Sulawesi, Indonesia",
      "ocean": [
        "Pacific Ocean",
        "Molucca Sea",
        "Gulf Of Tomini"
      ]
    },
    "coordinates": {
      "lat": "0.48407932382539365",
      "lng": "123.0470895767212"
    },
    "additionalInfo": {}
  },
  {
    "id": "07fdd952-27c0-46ba-85ed-75f0eb81adbe",
    "name": "Kalumata",
    "location": {
      "country": "Indonesia",
      "region": "Ternate Island, Maluku",
      "ocean": [
        "Pacific Ocean",
        "Molucca Sea"
      ]
    },
    "coordinates": {
      "lat": "0.7567471776547069",
      "lng": "127.36415863037111"
    },
    "additionalInfo": {}
  },
  {
    "id": "080a37b5-ba2e-44e6-8b8d-eb29f643d8c8",
    "name": "Tanjung Arus",
    "location": {
      "country": "Indonesia",
      "region": "Talisei, Sulawesi",
      "ocean": [
        "Pacific Ocean",
        "Celebes Sea"
      ]
    },
    "coordinates": {
      "lat": "1.879097633349161",
      "lng": "125.10329246520998"
    },
    "additionalInfo": {}
  },
  {
    "id": "081521d0-0dee-4487-850d-a1594896c4f3",
    "name": "Artemis",
    "location": {
      "country": "Indonesia",
      "region": "Unauna, Tojo Una-Una",
      "ocean": [
        "Pacific Ocean",
        "Molucca Sea",
        "Gulf Of Tomini"
      ]
    },
    "coordinates": {
      "lat": "-0.21354625852692247",
      "lng": "121.59170150756837"
    },
    "additionalInfo": {}
  },
  {
    "id": "0817b619-384b-4631-b77b-c436e43e7640",
    "name": "Wreck Foya",
    "location": {
      "country": "Indonesia",
      "region": "Halmahera Island, Maluku",
      "ocean": [
        "Pacific Ocean",
        "Halmahera Sea"
      ]
    },
    "coordinates": {
      "lat": "0.10454172055846489",
      "lng": "127.92549133300783"
    },
    "additionalInfo": {}
  },
  {
    "id": "08912205-9293-4348-941c-fdd9a6f718d7",
    "name": "Five Rocks",
    "location": {
      "country": "Indonesia",
      "region": "Gam Island, Waigeo Island",
      "ocean": [
        "Pacific Ocean",
        "Halmahera Sea"
      ]
    },
    "coordinates": {
      "lat": "-0.45661442922255124",
      "lng": "130.708122253418"
    },
    "additionalInfo": {}
  },
  {
    "id": "08e432e9-e313-4a34-9ca4-2aa034b73d1b",
    "name": "Gangga Islands",
    "location": {
      "country": "Indonesia",
      "region": "Lihaga, Sulawesi",
      "ocean": [
        "Pacific Ocean",
        "Celebes Sea"
      ]
    },
    "coordinates": {
      "lat": "1.770748472303437",
      "lng": "125.04638671875001"
    },
    "additionalInfo": {}
  },
  {
    "id": "08fa7621-45ea-4b88-89b5-404f1c9a88af",
    "name": "Ameth",
    "location": {
      "country": "Indonesia",
      "region": "Nusa Laut, Maluku",
      "ocean": [
        "Pacific Ocean",
        "Banda Sea"
      ]
    },
    "coordinates": {
      "lat": "-3.6568203976915163",
      "lng": "128.81177902221683"
    },
    "additionalInfo": {}
  },
  {
    "id": "09647d06-506c-491f-b7bd-c4267e36e8cd",
    "name": "Good Heart",
    "location": {
      "country": "Indonesia",
      "region": "Gili Trawangan, Gili Islands",
      "ocean": [
        "Asia",
        "Indonesia",
        "West Nusa Tenggara",
        "Lombok",
        "North Lombok Regency",
        "Pemenang",
        "Gili Islands",
        "Gili Trawangan"
      ]
    },
    "coordinates": {
      "lat": "-8.348407138583015",
      "lng": "116.04442119598389"
    },
    "additionalInfo": {}
  },
  {
    "id": "09c52322-690d-4d25-94da-8fa09a75d9b6",
    "name": "Twin Spot",
    "location": {
      "country": "Indonesia",
      "region": "Haruku Island, Maluku",
      "ocean": [
        "Pacific Ocean",
        "Banda Sea"
      ]
    },
    "coordinates": {
      "lat": "-3.62718295580951",
      "lng": "128.49918365478518"
    },
    "additionalInfo": {}
  },
  {
    "id": "09e6083d-bbab-499f-b416-d2f0145985ab",
    "name": "House Reef",
    "location": {
      "country": "Indonesia",
      "region": "Lembeh, Sulawesi",
      "ocean": [
        "Pacific Ocean",
        "Molucca Sea",
        "Lembeh Strait"
      ]
    },
    "coordinates": {
      "lat": "1.4066451156427213",
      "lng": "125.16885101795198"
    },
    "additionalInfo": {}
  },
  {
    "id": "0a571c5a-957b-4c3c-bf68-f83392870f20",
    "name": "Tuturuga Point",
    "location": {
      "country": "Indonesia",
      "region": "Derawan, Kalimantan",
      "ocean": [
        "Pacific Ocean",
        "Celebes Sea"
      ]
    },
    "coordinates": {
      "lat": "2.287638105783909",
      "lng": "118.24636459350587"
    },
    "additionalInfo": {}
  },
  {
    "id": "0ab41490-c2e5-45b5-b550-1316325e0781",
    "name": "Coral Garden",
    "location": {
      "country": "Indonesia",
      "region": "Sangalaki, Derawan",
      "ocean": [
        "Pacific Ocean",
        "Celebes Sea"
      ]
    },
    "coordinates": {
      "lat": "2.077248266321272",
      "lng": "118.40176105499269"
    },
    "additionalInfo": {}
  },
  {
    "id": "0acdc5ea-b356-41ab-9aa5-7487702702d5",
    "name": "Quoy Southside",
    "location": {
      "country": "Indonesia",
      "region": "Pulau Quoy, Waigeo Island",
      "ocean": [
        "Pacific Ocean",
        "Halmahera Sea"
      ]
    },
    "coordinates": {
      "lat": "0.13571640515302266",
      "lng": "130.1259187180734"
    },
    "additionalInfo": {}
  },
  {
    "id": "0b08f028-7156-491e-a7c9-d8c4a3092486",
    "name": "Laha 2",
    "location": {
      "country": "Indonesia",
      "region": "Ambon Island, Maluku",
      "ocean": [
        "Pacific Ocean",
        "Banda Sea"
      ]
    },
    "coordinates": {
      "lat": "-3.7142080273327163",
      "lng": "128.10298919677737"
    },
    "additionalInfo": {}
  },
  {
    "id": "0b58dfdb-970d-4973-810e-a301719bb72a",
    "name": "Apeng Lia",
    "location": {
      "country": "Indonesia",
      "region": "Siau, North Sulawesi",
      "ocean": [
        "Pacific Ocean",
        "Celebes Sea"
      ]
    },
    "coordinates": {
      "lat": "2.7915679998234117",
      "lng": "125.44738769531251"
    },
    "additionalInfo": {}
  },
  {
    "id": "0bd19330-999a-4895-825e-831395e74422",
    "name": "Pom-Pombo",
    "location": {
      "country": "Indonesia",
      "region": "Ambon Island, Maluku",
      "ocean": [
        "Pacific Ocean",
        "Banda Sea"
      ]
    },
    "coordinates": {
      "lat": "-3.52575735288141",
      "lng": "128.38142395019534"
    },
    "additionalInfo": {}
  },
  {
    "id": "0bd60312-df6e-43d3-b678-b3e51b051809",
    "name": "Zero Airplane Wreck",
    "location": {
      "country": "Indonesia",
      "region": "Roon Island, West Papua",
      "ocean": [
        "Pacific Ocean",
        "Cenderawasih Bay"
      ]
    },
    "coordinates": {
      "lat": "-2.437885584964255",
      "lng": "134.51883316040042"
    },
    "additionalInfo": {}
  },
  {
    "id": "0bd8369d-8daf-4d9a-802e-8d949457e7ed",
    "name": "Do O",
    "location": {
      "country": "Indonesia",
      "region": "Doo, Rote",
      "ocean": [
        "Indian Ocean",
        "Timor Sea"
      ]
    },
    "coordinates": {
      "lat": "-10.8214193028757",
      "lng": "122.73513793945314"
    },
    "additionalInfo": {}
  },
  {
    "id": "0c0d4588-d5ea-437c-a63d-8d0a6cab3c92",
    "name": "The Candy Store",
    "location": {
      "country": "Indonesia",
      "region": "Daram Island, Misool Island",
      "ocean": [
        "Pacific Ocean",
        "Halmahera Sea"
      ]
    },
    "coordinates": {
      "lat": "-2.1095848395281376",
      "lng": "130.88853836059573"
    },
    "additionalInfo": {}
  },
  {
    "id": "0c1f4d89-2aeb-4e0a-859e-0a5299df6cea",
    "name": "Warna Berwarna",
    "location": {
      "country": "Indonesia",
      "region": "Daram Island, Misool Island",
      "ocean": [
        "Pacific Ocean",
        "Halmahera Sea"
      ]
    },
    "coordinates": {
      "lat": "-2.0934595230142006",
      "lng": "130.8699989318848"
    },
    "additionalInfo": {}
  },
  {
    "id": "0c938752-2ab5-4254-9a69-859cb799fdf6",
    "name": "Gung Laut",
    "location": {
      "country": "Indonesia",
      "region": "Talatakoh, Tojo Una-Una",
      "ocean": [
        "Pacific Ocean",
        "Molucca Sea",
        "Gulf Of Tomini"
      ]
    },
    "coordinates": {
      "lat": "-0.4936920109804714",
      "lng": "122.0848846435547"
    },
    "additionalInfo": {}
  },
  {
    "id": "0cb8bcb6-42d7-400d-bdda-28b56a8b9ef6",
    "name": "Sakamau",
    "location": {
      "country": "Indonesia",
      "region": "Bangka, Sulawesi",
      "ocean": [
        "Pacific Ocean",
        "Celebes Sea"
      ]
    },
    "coordinates": {
      "lat": "1.7740942676376046",
      "lng": "125.12904167175294"
    },
    "additionalInfo": {}
  },
  {
    "id": "0ccd3688-2ace-4e36-b22e-e59ed2929a8e",
    "name": "Depan Kampung",
    "location": {
      "country": "Indonesia",
      "region": "Sangiang Island, Java",
      "ocean": [
        "Pacific Ocean",
        "Java Sea",
        "Sunda Strait"
      ]
    },
    "coordinates": {
      "lat": "-5.975229198076752",
      "lng": "105.85016012191774"
    },
    "additionalInfo": {}
  },
  {
    "id": "0cd8f4eb-1c2d-44ec-9273-cc55bff497e5",
    "name": "Amanwana Bay",
    "location": {
      "country": "Indonesia",
      "region": "Moyo, Sumbawa",
      "ocean": [
        "Pacific Ocean",
        "Java Sea"
      ]
    },
    "coordinates": {
      "lat": "-8.271630865871677",
      "lng": "117.48899459838869"
    },
    "additionalInfo": {}
  },
  {
    "id": "0d4d6c2d-3843-4c11-9b5c-c16a958e5374",
    "name": "Gili Tepekong",
    "location": {
      "country": "Indonesia",
      "region": "Bali, Indonesia",
      "ocean": [
        "Pacific Ocean",
        "Bali Sea",
        "Lombok Strait"
      ]
    },
    "coordinates": {
      "lat": "-8.53236644134777",
      "lng": "115.58402538299562"
    },
    "additionalInfo": {}
  },
  {
    "id": "0d844aab-7880-4328-a30b-d23ca9b1a9db",
    "name": "Batu Meling",
    "location": {
      "country": "Indonesia",
      "region": "Nusa Penida, Bali",
      "ocean": [
        "Pacific Ocean",
        "Bali Sea",
        "Lombok Strait"
      ]
    },
    "coordinates": {
      "lat": "-8.774241621683052",
      "lng": "115.49325942993165"
    },
    "additionalInfo": {}
  },
  {
    "id": "0d857970-439e-43e5-ae43-bea9f749831f",
    "name": "Sungai Omi",
    "location": {
      "country": "Indonesia",
      "region": "West Papua, Indonesia",
      "ocean": [
        "Pacific Ocean",
        "Cenderawasih Bay"
      ]
    },
    "coordinates": {
      "lat": "-1.290784355433135",
      "lng": "134.30305480957034"
    },
    "additionalInfo": {}
  },
  {
    "id": "0d95e521-b3bb-4d4f-a460-7b631bf5e602",
    "name": "Mirko&#039;s Reef",
    "location": {
      "country": "Indonesia",
      "region": "North Lombok Regency, Lombok",
      "ocean": [
        "Pemenang",
        "Gili Islands",
        "Gili Meno"
      ]
    },
    "coordinates": {
      "lat": "-8.352992855443999",
      "lng": "116.06351852416994"
    },
    "additionalInfo": {}
  },
  {
    "id": "0daaa5ec-b320-4eb8-b8e1-a7dc84df9974",
    "name": "Gorango Se",
    "location": {
      "country": "Indonesia",
      "region": "Halmahera Island, Maluku",
      "ocean": [
        "Pacific Ocean",
        "Halmahera Sea"
      ]
    },
    "coordinates": {
      "lat": "0.4219398507236289",
      "lng": "128.13242912292483"
    },
    "additionalInfo": {}
  },
  {
    "id": "0dcfece1-02c8-4a85-9815-1733d71ea3e0",
    "name": "Indonor Wreck",
    "location": {
      "country": "Indonesia",
      "region": "Karimunjawa National Park, Jepara Regency",
      "ocean": [
        "Pacific Ocean",
        "Java Sea"
      ]
    },
    "coordinates": {
      "lat": "-5.782287355072285",
      "lng": "110.46305061048298"
    },
    "additionalInfo": {}
  },
  {
    "id": "0e0c9ba3-ce6d-45e0-ac78-5756419dde38",
    "name": "Tanjung Paudean",
    "location": {
      "country": "Indonesia",
      "region": "Lembeh, Sulawesi",
      "ocean": [
        "Pacific Ocean",
        "Molucca Sea",
        "Lembeh Strait"
      ]
    },
    "coordinates": {
      "lat": "1.4211675366456755",
      "lng": "125.18075466156007"
    },
    "additionalInfo": {}
  },
  {
    "id": "0e126de2-272c-4022-8acc-6a66cc179ea7",
    "name": "Shark Point",
    "location": {
      "country": "Indonesia",
      "region": "Derawan, Kalimantan",
      "ocean": [
        "Pacific Ocean",
        "Celebes Sea"
      ]
    },
    "coordinates": {
      "lat": "2.281291682737042",
      "lng": "118.2448196411133"
    },
    "additionalInfo": {}
  },
  {
    "id": "0e932414-f459-4b17-91a5-0d99b0bdcc9b",
    "name": "Sharks Galore",
    "location": {
      "country": "Indonesia",
      "region": "Pura, Lesser Sundar",
      "ocean": [
        "Pacific Ocean",
        "Banda Sea"
      ]
    },
    "coordinates": {
      "lat": "-8.309681162404646",
      "lng": "124.37450408935548"
    },
    "additionalInfo": {}
  },
  {
    "id": "0ea55c10-ae53-4c7c-bdf0-8487c788c155",
    "name": "Yellist Kecil",
    "location": {
      "country": "Indonesia",
      "region": "Kanim Island, Misool Island",
      "ocean": [
        "Pacific Ocean",
        "Halmahera Sea"
      ]
    },
    "coordinates": {
      "lat": "-2.1809459179583217",
      "lng": "130.63053131103518"
    },
    "additionalInfo": {}
  },
  {
    "id": "0f5424cd-e6a6-406f-9700-85be516aef8d",
    "name": "Ujung Karang Tinggi",
    "location": {
      "country": "Indonesia",
      "region": "Maratua, Derawan",
      "ocean": [
        "Pacific Ocean",
        "Celebes Sea"
      ]
    },
    "coordinates": {
      "lat": "2.1140450039977643",
      "lng": "118.67843627929688"
    },
    "additionalInfo": {}
  },
  {
    "id": "0f8a3289-7288-4dda-9e9a-c4989677297c",
    "name": "Cape Bira",
    "location": {
      "country": "Indonesia",
      "region": "Sulawesi, Indonesia",
      "ocean": [
        "Pacific Ocean",
        "Flores Sea",
        "Selayar Strait"
      ]
    },
    "coordinates": {
      "lat": "-5.623374490942408",
      "lng": "120.47470092773439"
    },
    "additionalInfo": {}
  },
  {
    "id": "1004d071-da01-4324-aee0-8bfb4c4b9fca",
    "name": "Tanjung Sari",
    "location": {
      "country": "Indonesia",
      "region": "Bali, Indonesia",
      "ocean": [
        "Pacific Ocean",
        "Bali Sea",
        "Lombok Strait"
      ]
    },
    "coordinates": {
      "lat": "-8.53217545965243",
      "lng": "115.51443815231325"
    },
    "additionalInfo": {}
  },
  {
    "id": "10158153-2242-465f-aa44-8cdf7fe50a93",
    "name": "Japanese Cargo Wreck",
    "location": {
      "country": "Indonesia",
      "region": "Sulawesi, Indonesia",
      "ocean": [
        "Pacific Ocean",
        "Molucca Sea",
        "Gulf Of Tomini"
      ]
    },
    "coordinates": {
      "lat": "0.48655",
      "lng": "123.08235"
    },
    "additionalInfo": {}
  },
  {
    "id": "1030608d-ceb8-49f0-97a6-8c84bd8bbcb2",
    "name": "Elmoos Se 3",
    "location": {
      "country": "Indonesia",
      "region": "Halmahera Island, Maluku",
      "ocean": [
        "Pacific Ocean",
        "Halmahera Sea"
      ]
    },
    "coordinates": {
      "lat": "0.16745543482003225",
      "lng": "128.01539897918704"
    },
    "additionalInfo": {}
  },
  {
    "id": "103cc8ba-8e2b-4a57-a4f4-8e3ebcd309f4",
    "name": "Three Rocks",
    "location": {
      "country": "Indonesia",
      "region": "Aiduma Island, West Papua",
      "ocean": [
        "Pacific Ocean",
        "Arafura Sea"
      ]
    },
    "coordinates": {
      "lat": "-3.9088695614624447",
      "lng": "134.07899379730227"
    },
    "additionalInfo": {}
  },
  {
    "id": "10440bcc-4964-47c8-8aae-c93f1b89b9df",
    "name": "Pinki&#039;s Wall",
    "location": {
      "country": "Indonesia",
      "region": "Wakatobi Regency, Sulawesi",
      "ocean": [
        "Pacific Ocean",
        "Banda Sea"
      ]
    },
    "coordinates": {
      "lat": "-5.801357318438947",
      "lng": "123.83205413818361"
    },
    "additionalInfo": {}
  },
  {
    "id": "1133455f-44c3-49bd-a0fb-23f486ac8dce",
    "name": "Tanjung Domato",
    "location": {
      "country": "Indonesia",
      "region": "Ambon Island, Maluku",
      "ocean": [
        "Pacific Ocean",
        "Banda Sea"
      ]
    },
    "coordinates": {
      "lat": "-3.729539317099934",
      "lng": "128.26520919799808"
    },
    "additionalInfo": {}
  },
  {
    "id": "1191122e-872e-4bcb-9aea-14b7cf67c864",
    "name": "Deep Turbo",
    "location": {
      "country": "Indonesia",
      "region": "Gili Trawangan, Gili Islands",
      "ocean": [
        "Pacific Ocean",
        "Bali Sea"
      ]
    },
    "coordinates": {
      "lat": "-8.336645377886326",
      "lng": "116.04626655578615"
    },
    "additionalInfo": {}
  },
  {
    "id": "11a8e491-d5b3-422c-a46e-116e63e5298d",
    "name": "Batu Kapal",
    "location": {
      "country": "Indonesia",
      "region": "Haruku Island, Maluku",
      "ocean": [
        "Pacific Ocean",
        "Banda Sea"
      ]
    },
    "coordinates": {
      "lat": "-3.63711931668686",
      "lng": "128.39653015136722"
    },
    "additionalInfo": {}
  },
  {
    "id": "11d2feef-0ab7-40bd-ab8d-d796599f47e1",
    "name": "Yumni",
    "location": {
      "country": "Indonesia",
      "region": "Wundi Island, Padaido",
      "ocean": [
        "Pacific Ocean",
        "Cenderawasih Bay"
      ]
    },
    "coordinates": {
      "lat": "-1.22519641748023",
      "lng": "136.36297973266463"
    },
    "additionalInfo": {}
  },
  {
    "id": "11e53cd9-207d-4b68-860e-c58e5713335f",
    "name": "Test",
    "location": {
      "country": "Indonesia",
      "region": "Pulau Flores, West Manggarai Regency",
      "ocean": [
        "Pacific Ocean",
        "Flores Sea"
      ]
    },
    "coordinates": {
      "lat": "-8.366396271295857",
      "lng": "121.2451171875"
    },
    "additionalInfo": {}
  },
  {
    "id": "12367daf-f24b-4a84-9030-64c742419f4b",
    "name": "Karnofol",
    "location": {
      "country": "Indonesia",
      "region": "Banda Island, Maluku",
      "ocean": [
        "Pacific Ocean",
        "Banda Sea"
      ]
    },
    "coordinates": {
      "lat": "-4.557602139371097",
      "lng": "129.95796203613284"
    },
    "additionalInfo": {}
  },
  {
    "id": "1269734b-da31-458e-8191-da711bd204a5",
    "name": "Tanjung Run",
    "location": {
      "country": "Indonesia",
      "region": "Run Island, Banda Islands",
      "ocean": [
        "Pacific Ocean",
        "Banda Sea"
      ]
    },
    "coordinates": {
      "lat": "-4.551946261703794",
      "lng": "129.67746734619143"
    },
    "additionalInfo": {}
  },
  {
    "id": "12715e6b-84f9-44ac-a0f6-ff6eab85370c",
    "name": "Macro-Heaven",
    "location": {
      "country": "Indonesia",
      "region": "Gili Layar, Gili Islands",
      "ocean": [
        "Pacific Ocean",
        "Bali Sea",
        "Lombok Strait"
      ]
    },
    "coordinates": {
      "lat": "-8.730574762892422",
      "lng": "115.90883731929354"
    },
    "additionalInfo": {}
  },
  {
    "id": "1274fd47-1977-472e-9447-896a581b131e",
    "name": "Batu Lihunu",
    "location": {
      "country": "Indonesia",
      "region": "Bangka, Sulawesi",
      "ocean": [
        "Pacific Ocean",
        "Celebes Sea"
      ]
    },
    "coordinates": {
      "lat": "1.7508022597874227",
      "lng": "125.16255855560304"
    },
    "additionalInfo": {}
  },
  {
    "id": "128e7689-7125-4fd1-9e9e-3606d2c5bf3a",
    "name": "Macro Rock",
    "location": {
      "country": "Indonesia",
      "region": "Misool Island, Raja Ampat Islands",
      "ocean": [
        "Pacific Ocean",
        "Halmahera Sea"
      ]
    },
    "coordinates": {
      "lat": "-2.0244962069655688",
      "lng": "130.61594009399417"
    },
    "additionalInfo": {}
  },
  {
    "id": "12bf742d-4a23-4cbd-8c54-8053e00f0ddc",
    "name": "Roma",
    "location": {
      "country": "Indonesia",
      "region": "Tomia, Wakatobi Regency",
      "ocean": [
        "Pacific Ocean",
        "Banda Sea"
      ]
    },
    "coordinates": {
      "lat": "-5.730894610751418",
      "lng": "123.89261841773988"
    },
    "additionalInfo": {}
  },
  {
    "id": "12c83a63-8eb1-418e-a061-1d4b5e38cac2",
    "name": "Deep Blue",
    "location": {
      "country": "Indonesia",
      "region": "Bali, Indonesia",
      "ocean": [
        "Pacific Ocean",
        "Bali Sea"
      ]
    },
    "coordinates": {
      "lat": "-8.356304728553319",
      "lng": "115.69509029388428"
    },
    "additionalInfo": {}
  },
  {
    "id": "12cfcfb0-6a7d-475d-b089-a9b77b44706e",
    "name": "Mirkos",
    "location": {
      "country": "Indonesia",
      "region": "Gili Air, Gili Islands",
      "ocean": [
        "Pacific Ocean",
        "Bali Sea"
      ]
    },
    "coordinates": {
      "lat": "-8.357716512068277",
      "lng": "116.0714900493622"
    },
    "additionalInfo": {}
  },
  {
    "id": "12efdf10-1031-4d9a-a28a-fbfd3238e34c",
    "name": "Turtle Traffic",
    "location": {
      "country": "Indonesia",
      "region": "Maratua, Derawan",
      "ocean": [
        "Pacific Ocean",
        "Celebes Sea"
      ]
    },
    "coordinates": {
      "lat": "2.241668789806871",
      "lng": "118.5524368286133"
    },
    "additionalInfo": {}
  },
  {
    "id": "13271807-dd80-4810-b9d1-e510c44b5f9a",
    "name": "Kurenai Reef Wall",
    "location": {
      "country": "Indonesia",
      "region": "Sulawesi, Indonesia",
      "ocean": [
        "Pacific Ocean",
        "Molucca Sea",
        "Gulf Of Tomini"
      ]
    },
    "coordinates": {
      "lat": "0.4916048568369545",
      "lng": "123.07451015597458"
    },
    "additionalInfo": {}
  },
  {
    "id": "1399a147-0ace-4840-9a6b-f2372ed69c4d",
    "name": "Wainilu",
    "location": {
      "country": "Indonesia",
      "region": "Nusa Wainatu, Rinca",
      "ocean": [
        "Pacific Ocean",
        "Flores Sea"
      ]
    },
    "coordinates": {
      "lat": "-8.628884809720304",
      "lng": "119.7037696838379"
    },
    "additionalInfo": {}
  },
  {
    "id": "13b96a82-ae10-422f-9449-07b9e885fbcd",
    "name": "Pleasant Surprise",
    "location": {
      "country": "Indonesia",
      "region": "Pura, Lesser Sundar",
      "ocean": [
        "Pacific Ocean",
        "Banda Sea"
      ]
    },
    "coordinates": {
      "lat": "-8.273754305254375",
      "lng": "124.34652328491212"
    },
    "additionalInfo": {}
  },
  {
    "id": "142a99c1-d0f2-43ea-9454-838649201332",
    "name": "Mid Reef",
    "location": {
      "country": "Indonesia",
      "region": "Maratua, Derawan",
      "ocean": [
        "Pacific Ocean",
        "Celebes Sea"
      ]
    },
    "coordinates": {
      "lat": "2.2070193197054473",
      "lng": "118.56848716735841"
    },
    "additionalInfo": {}
  },
  {
    "id": "143a5744-e320-4dac-b50f-8b9438afad24",
    "name": "Lighthouse",
    "location": {
      "country": "Indonesia",
      "region": "Lombok, West Nusa Tenggara",
      "ocean": [
        "Pacific Ocean",
        "Bali Sea",
        "Lombok Strait"
      ]
    },
    "coordinates": {
      "lat": "-8.720097348427355",
      "lng": "115.85293292999269"
    },
    "additionalInfo": {}
  },
  {
    "id": "146bb34c-de68-43b6-bc2d-e973ce23cbd0",
    "name": "Batu Belah Reef Crest ",
    "location": {
      "country": "Indonesia",
      "region": "Anambas Islands, Riau Islands",
      "ocean": [
        "Pacific Ocean",
        "South China Sea"
      ]
    },
    "coordinates": {
      "lat": "3.207750023790511",
      "lng": "106.32003101236675"
    },
    "additionalInfo": {}
  },
  {
    "id": "14850f0c-69de-4218-a0b8-61eca3fd7fdd",
    "name": "Hans",
    "location": {
      "country": "Indonesia",
      "region": "Gili Air, Gili Islands",
      "ocean": [
        "Pacific Ocean",
        "Bali Sea"
      ]
    },
    "coordinates": {
      "lat": "-8.35405435629678",
      "lng": "116.08879566192628"
    },
    "additionalInfo": {}
  },
  {
    "id": "14c8e2f6-e305-48dc-b8c9-d99788526b07",
    "name": "Foya Tanjung 3",
    "location": {
      "country": "Indonesia",
      "region": "Halmahera Island, Maluku",
      "ocean": [
        "Pacific Ocean",
        "Halmahera Sea"
      ]
    },
    "coordinates": {
      "lat": "0.10419839837418382",
      "lng": "127.93527603149415"
    },
    "additionalInfo": {}
  },
  {
    "id": "14d8e0dd-2f57-4afb-9653-84ae22851b53",
    "name": "Pemuteran Bay",
    "location": {
      "country": "Indonesia",
      "region": "Bali, Indonesia",
      "ocean": [
        "Pacific Ocean",
        "Bali Sea"
      ]
    },
    "coordinates": {
      "lat": "-8.122454606316262",
      "lng": "114.64851379394531"
    },
    "additionalInfo": {}
  },
  {
    "id": "14e210a8-c24a-4098-b9cd-48a0acadfc66",
    "name": "Sunken Island",
    "location": {
      "country": "Indonesia",
      "region": "Sulawesi, Indonesia",
      "ocean": [
        "Pacific Ocean",
        "Molucca Sea",
        "Gulf Of Tomini"
      ]
    },
    "coordinates": {
      "lat": "0.4545545578192058",
      "lng": "123.10498237609865"
    },
    "additionalInfo": {}
  },
  {
    "id": "153a365d-2219-4594-a08e-29021c5be4f5",
    "name": "Inner Rock",
    "location": {
      "country": "Indonesia",
      "region": "Pulau Wajang, Waigeo Island",
      "ocean": [
        "Pacific Ocean",
        "Halmahera Sea"
      ]
    },
    "coordinates": {
      "lat": "0.16742853731198973",
      "lng": "130.0189759903284"
    },
    "additionalInfo": {}
  },
  {
    "id": "154f26f0-510a-445a-9953-8924389a7a3c",
    "name": "Onong Reef",
    "location": {
      "country": "Indonesia",
      "region": "Siladen Island, Bunaken Kepulauan",
      "ocean": [
        "Pacific Ocean",
        "Celebes Sea"
      ]
    },
    "coordinates": {
      "lat": "1.6268951589251677",
      "lng": "124.80503082275392"
    },
    "additionalInfo": {}
  },
  {
    "id": "1592e11d-5663-4ef9-a1ee-39ba3de65b0c",
    "name": "Mambo Jumbo",
    "location": {
      "country": "Indonesia",
      "region": "Nuse, Rote",
      "ocean": [
        "Indian Ocean",
        "Timor Sea"
      ]
    },
    "coordinates": {
      "lat": "-10.769989230803235",
      "lng": "122.7854347229004"
    },
    "additionalInfo": {}
  },
  {
    "id": "15bceb22-7417-4a70-b74b-a63f7e8bdd20",
    "name": "Pasi Pome",
    "location": {
      "country": "Indonesia",
      "region": "Sulawesi, Indonesia",
      "ocean": [
        "Pacific Ocean",
        "Java Sea",
        "Makassar Strait"
      ]
    },
    "coordinates": {
      "lat": "-0.6763301181391345",
      "lng": "119.69261169433595"
    },
    "additionalInfo": {}
  },
  {
    "id": "16313eab-e31f-4faa-8284-fdff3c35a898",
    "name": "Taipi Wall",
    "location": {
      "country": "Indonesia",
      "region": "Tanjung Pude, Sulawesi",
      "ocean": [
        "Pacific Ocean",
        "Molucca Sea",
        "Gulf Of Tomini"
      ]
    },
    "coordinates": {
      "lat": "-0.3314762697792423",
      "lng": "121.83949470520021"
    },
    "additionalInfo": {}
  },
  {
    "id": "16684b21-d077-45df-a02b-bf1e0191c338",
    "name": "Sponge Wall",
    "location": {
      "country": "Indonesia",
      "region": "Sulawesi, Indonesia",
      "ocean": [
        "Pacific Ocean",
        "Molucca Sea",
        "Gulf Of Tomini"
      ]
    },
    "coordinates": {
      "lat": "0.476183177742453",
      "lng": "122.97803878784181"
    },
    "additionalInfo": {}
  },
  {
    "id": "16922044-9230-477f-9c15-c019ba9c60e5",
    "name": "Trawangan Slope",
    "location": {
      "country": "Indonesia",
      "region": "Pemenang, North Lombok Regency",
      "ocean": [
        "Gili Islands",
        "Gili Trawangan"
      ]
    },
    "coordinates": {
      "lat": "-8.34946865190749",
      "lng": "116.04575157165529"
    },
    "additionalInfo": {}
  },
  {
    "id": "16c1d20c-13a9-4d70-af30-5adabfb589ec",
    "name": "Blue Lagoon",
    "location": {
      "country": "Indonesia",
      "region": "Bali, Indonesia",
      "ocean": [
        "Pacific Ocean",
        "Bali Sea",
        "Lombok Strait"
      ]
    },
    "coordinates": {
      "lat": "-8.530010993764405",
      "lng": "115.51392316818239"
    },
    "additionalInfo": {}
  },
  {
    "id": "17a9b54c-323f-4f1f-b75c-ed4478b1550e",
    "name": "Diversity",
    "location": {
      "country": "Indonesia",
      "region": "Batanta Island, Raja Ampat Islands",
      "ocean": [
        "Pacific Ocean",
        "Halmahera Sea"
      ]
    },
    "coordinates": {
      "lat": "-0.9142296967454875",
      "lng": "130.43003082275393"
    },
    "additionalInfo": {}
  },
  {
    "id": "17e5892d-b037-47fa-a57f-8555c848a505",
    "name": "Lagoon",
    "location": {
      "country": "Indonesia",
      "region": "Bali, Indonesia",
      "ocean": [
        "Pacific Ocean",
        "Bali Sea"
      ]
    },
    "coordinates": {
      "lat": "-8.097087778158924",
      "lng": "114.50200080871583"
    },
    "additionalInfo": {}
  },
  {
    "id": "17eac9ea-fbdf-48b5-bd01-37198307992d",
    "name": "Tai Wreck",
    "location": {
      "country": "Indonesia",
      "region": "Weh Island, Banda Aceh",
      "ocean": [
        "Indian Ocean",
        "Andaman Sea"
      ]
    },
    "coordinates": {
      "lat": "5.872312832388269",
      "lng": "95.26942491531372"
    },
    "additionalInfo": {}
  },
  {
    "id": "1852adee-b11d-4011-947a-aa6b76ccef63",
    "name": "Tanjung Kelapa",
    "location": {
      "country": "Indonesia",
      "region": "Sulawesi, Indonesia",
      "ocean": [
        "Pacific Ocean",
        "Celebes Sea"
      ]
    },
    "coordinates": {
      "lat": "1.4100558548760291",
      "lng": "124.63203907012941"
    },
    "additionalInfo": {}
  },
  {
    "id": "18593cd4-50cd-4c1e-9a03-243daa654445",
    "name": "Jungut Batu",
    "location": {
      "country": "Indonesia",
      "region": "Nusa Lembongan, Bali",
      "ocean": [
        "Pacific Ocean",
        "Bali Sea",
        "Badung Strait"
      ]
    },
    "coordinates": {
      "lat": "-8.67423930153988",
      "lng": "115.44167518615724"
    },
    "additionalInfo": {}
  },
  {
    "id": "185c458a-746f-4cee-ab9a-65123c6ae97c",
    "name": "House Reef",
    "location": {
      "country": "Indonesia",
      "region": "Unauna, Tojo Una-Una",
      "ocean": [
        "Pacific Ocean",
        "Molucca Sea",
        "Gulf Of Tomini"
      ]
    },
    "coordinates": {
      "lat": "-0.15711287835908766",
      "lng": "121.65997982025148"
    },
    "additionalInfo": {}
  },
  {
    "id": "18e949de-d97d-46af-ae90-df1cd4bf44a8",
    "name": "Seamound The Boys",
    "location": {
      "country": "Indonesia",
      "region": "Ambon Island, Maluku",
      "ocean": [
        "Pacific Ocean",
        "Banda Sea"
      ]
    },
    "coordinates": {
      "lat": "-3.656306461937465",
      "lng": "128.30932617187503"
    },
    "additionalInfo": {}
  },
  {
    "id": "19b00e3a-3c36-4c2e-884a-75d5e635c86c",
    "name": "Mandiri",
    "location": {
      "country": "Indonesia",
      "region": "Unauna, Tojo Una-Una",
      "ocean": [
        "Pacific Ocean",
        "Molucca Sea",
        "Gulf Of Tomini"
      ]
    },
    "coordinates": {
      "lat": "-0.11775962168246348",
      "lng": "121.61624908447267"
    },
    "additionalInfo": {}
  },
  {
    "id": "1a320ef2-5606-487d-a760-eccf8e627931",
    "name": "Tanjun Parigi",
    "location": {
      "country": "Indonesia",
      "region": "Bunaken Island, Bunaken Kepulauan",
      "ocean": [
        "Pacific Ocean",
        "Celebes Sea"
      ]
    },
    "coordinates": {
      "lat": "1.6280212322917216",
      "lng": "124.75962638854982"
    },
    "additionalInfo": {}
  },
  {
    "id": "1ad4a8a3-1323-4def-be8c-9cd0a0d7438c",
    "name": "Lekuan I (Turtle City)",
    "location": {
      "country": "Indonesia",
      "region": "Bunaken Island, Bunaken Kepulauan",
      "ocean": [
        "Pacific Ocean",
        "Celebes Sea"
      ]
    },
    "coordinates": {
      "lat": "1.5960297809256494",
      "lng": "124.76809144020082"
    },
    "additionalInfo": {}
  },
  {
    "id": "1af17c2e-4949-492d-990e-6fcdc71e182e",
    "name": "Shark Point",
    "location": {
      "country": "Indonesia",
      "region": "Gili Trawangan, Gili Islands",
      "ocean": [
        "Pacific Ocean",
        "Bali Sea"
      ]
    },
    "coordinates": {
      "lat": "-8.343226912159876",
      "lng": "116.02601051330568"
    },
    "additionalInfo": {}
  },
  {
    "id": "1b1ae110-959c-484e-b315-774d915e0a65",
    "name": "Setangi Rock",
    "location": {
      "country": "Indonesia",
      "region": "Lombok, West Nusa Tenggara",
      "ocean": [
        "Pacific Ocean",
        "Bali Sea",
        "Lombok Strait"
      ]
    },
    "coordinates": {
      "lat": "-8.47763567612975",
      "lng": "116.02111816406251"
    },
    "additionalInfo": {}
  },
  {
    "id": "1b496873-b0d7-49ec-a12a-a1879424826c",
    "name": "Tanjung Tarabitan",
    "location": {
      "country": "Indonesia",
      "region": "Sulawesi, Indonesia",
      "ocean": [
        "Pacific Ocean",
        "Celebes Sea"
      ]
    },
    "coordinates": {
      "lat": "1.7496440860658198",
      "lng": "124.97772216796876"
    },
    "additionalInfo": {}
  },
  {
    "id": "1bf1b027-7c99-4664-b161-6656133dbb7d",
    "name": "Fusulier Paradise",
    "location": {
      "country": "Indonesia",
      "region": "Maratua, Derawan",
      "ocean": [
        "Pacific Ocean",
        "Celebes Sea"
      ]
    },
    "coordinates": {
      "lat": "2.2312054218320516",
      "lng": "118.5564708709717"
    },
    "additionalInfo": {}
  },
  {
    "id": "1c05f81f-a9c1-4888-8067-ff5a41f77bd8",
    "name": "Padangbai Ferry Channel",
    "location": {
      "country": "Indonesia",
      "region": "Bali, Indonesia",
      "ocean": [
        "Pacific Ocean",
        "Bali Sea",
        "Lombok Strait"
      ]
    },
    "coordinates": {
      "lat": "-8.536334594961872",
      "lng": "115.51261425018312"
    },
    "additionalInfo": {}
  },
  {
    "id": "1c4c54e3-e94f-41a1-b6d5-d7352acff1e6",
    "name": "Batu Gila",
    "location": {
      "country": "Indonesia",
      "region": "Unauna, Tojo Una-Una",
      "ocean": [
        "Pacific Ocean",
        "Molucca Sea",
        "Gulf Of Tomini"
      ]
    },
    "coordinates": {
      "lat": "-0.2284806871694552",
      "lng": "121.60509109497072"
    },
    "additionalInfo": {}
  },
  {
    "id": "1d008b3e-9c72-46f9-a70b-6d1eef1b1128",
    "name": "Tanjung Putus 1",
    "location": {
      "country": "Indonesia",
      "region": "Halmahera Island, Maluku",
      "ocean": [
        "Pacific Ocean",
        "Halmahera Sea"
      ]
    },
    "coordinates": {
      "lat": "0.26761911357045365",
      "lng": "127.92630672454835"
    },
    "additionalInfo": {}
  },
  {
    "id": "1d34f6f6-315e-4910-91a9-0705286b4da1",
    "name": "Peling Sawang I &amp; Ii",
    "location": {
      "country": "Indonesia",
      "region": "Siau, North Sulawesi",
      "ocean": [
        "Pacific Ocean",
        "Celebes Sea"
      ]
    },
    "coordinates": {
      "lat": "2.6766000858994947",
      "lng": "125.36996841430665"
    },
    "additionalInfo": {}
  },
  {
    "id": "1d7eb0c4-493a-419a-8b3a-b80272c9923b",
    "name": "Gorango Mini 2",
    "location": {
      "country": "Indonesia",
      "region": "Halmahera Island, Maluku",
      "ocean": [
        "Pacific Ocean",
        "Halmahera Sea"
      ]
    },
    "coordinates": {
      "lat": "0.42786200537510455",
      "lng": "128.11431884765628"
    },
    "additionalInfo": {}
  },
  {
    "id": "1da9fdb5-81be-48ab-9ae1-5ab5e8bd0adb",
    "name": "Sombu Dive",
    "location": {
      "country": "Indonesia",
      "region": "Tomia, Wakatobi Regency",
      "ocean": [
        "Pacific Ocean",
        "Banda Sea"
      ]
    },
    "coordinates": {
      "lat": "-5.7540059761973",
      "lng": "124.09469604492189"
    },
    "additionalInfo": {}
  },
  {
    "id": "1db46005-e995-4c4c-ad98-42e17a41baf6",
    "name": "Talise Pinnacle",
    "location": {
      "country": "Indonesia",
      "region": "Talisei, Sulawesi",
      "ocean": [
        "Pacific Ocean",
        "Celebes Sea"
      ]
    },
    "coordinates": {
      "lat": "1.8876760655069391",
      "lng": "125.08835792541505"
    },
    "additionalInfo": {}
  },
  {
    "id": "1db52859-5b8b-4fdb-ba88-d2b0906ea74c",
    "name": "Satonda Island",
    "location": {
      "country": "Indonesia",
      "region": "Sumbawa, Sumbawa Regency",
      "ocean": [
        "Pacific Ocean",
        "Java Sea"
      ]
    },
    "coordinates": {
      "lat": "-8.099339610071276",
      "lng": "117.71507263183595"
    },
    "additionalInfo": {}
  },
  {
    "id": "1e0d362b-4248-4b57-a16d-38b95b24a08a",
    "name": "Cauldron",
    "location": {
      "country": "Indonesia",
      "region": "Gili Lawalaut, Komodo",
      "ocean": [
        "Pacific Ocean",
        "Flores Sea"
      ]
    },
    "coordinates": {
      "lat": "-8.461675487717097",
      "lng": "119.56455230712892"
    },
    "additionalInfo": {}
  },
  {
    "id": "1e167996-8426-4962-934e-12439372470f",
    "name": "Pumpuli",
    "location": {
      "country": "Indonesia",
      "region": "Unauna, Tojo Una-Una",
      "ocean": [
        "Pacific Ocean",
        "Molucca Sea",
        "Gulf Of Tomini"
      ]
    },
    "coordinates": {
      "lat": "-0.15213471655692853",
      "lng": "121.66658878326417"
    },
    "additionalInfo": {}
  },
  {
    "id": "1e4d05d0-6140-477d-be43-51cac431a333",
    "name": "Pelabuhan Ulu",
    "location": {
      "country": "Indonesia",
      "region": "Siau, North Sulawesi",
      "ocean": [
        "Pacific Ocean",
        "Celebes Sea"
      ]
    },
    "coordinates": {
      "lat": "2.7338710874616248",
      "lng": "125.43210983276369"
    },
    "additionalInfo": {}
  },
  {
    "id": "1e6c59de-b65d-41d7-92a3-dc4eb573cff6",
    "name": "Eel Garden",
    "location": {
      "country": "Indonesia",
      "region": "Maratua, Derawan",
      "ocean": [
        "Pacific Ocean",
        "Celebes Sea"
      ]
    },
    "coordinates": {
      "lat": "2.2708285998506694",
      "lng": "118.55140686035156"
    },
    "additionalInfo": {}
  },
  {
    "id": "1e8dec1b-9b82-412a-a85b-6d80dfe23ee9",
    "name": "Tjendrawasih Barge Wreck",
    "location": {
      "country": "Indonesia",
      "region": "Sulawesi, Indonesia",
      "ocean": [
        "Pacific Ocean",
        "Molucca Sea",
        "Gulf Of Tomini"
      ]
    },
    "coordinates": {
      "lat": "0.49506525087451714",
      "lng": "123.06575775146486"
    },
    "additionalInfo": {}
  },
  {
    "id": "1f06d7ea-a236-4309-b971-5f8f72821447",
    "name": "Harbour Point",
    "location": {
      "country": "Indonesia",
      "region": "Morotai Island, Maluku",
      "ocean": [
        "Pacific Ocean"
      ]
    },
    "coordinates": {
      "lat": "2.036504958383928",
      "lng": "128.45455169677737"
    },
    "additionalInfo": {}
  },
  {
    "id": "1f0cfdb0-8198-4e44-b870-0157508bdacc",
    "name": "Tanjung Alang",
    "location": {
      "country": "Indonesia",
      "region": "Ambon Island, Maluku",
      "ocean": [
        "Pacific Ocean",
        "Banda Sea"
      ]
    },
    "coordinates": {
      "lat": "-3.7820405282110454",
      "lng": "128.00239562988284"
    },
    "additionalInfo": {}
  },
  {
    "id": "1f894117-cfc3-4c53-8eb5-514eae67606d",
    "name": "Maratua Reef",
    "location": {
      "country": "Indonesia",
      "region": "Maratua, Derawan",
      "ocean": [
        "Pacific Ocean",
        "Celebes Sea"
      ]
    },
    "coordinates": {
      "lat": "2.189179672845543",
      "lng": "118.58239173889162"
    },
    "additionalInfo": {}
  },
  {
    "id": "1f93bf9d-2f8f-451c-b15e-2cd24a024052",
    "name": "Tanjung Sabatai Point",
    "location": {
      "country": "Indonesia",
      "region": "Morotai Island, Maluku",
      "ocean": [
        "Pacific Ocean"
      ]
    },
    "coordinates": {
      "lat": "2.0244962069655816",
      "lng": "128.38245391845706"
    },
    "additionalInfo": {}
  },
  {
    "id": "1fc1ce56-f9ac-41e8-b829-17820f93c4f9",
    "name": "Vanessa&#039;s Forest",
    "location": {
      "country": "Indonesia",
      "region": "Helehanak, Rote",
      "ocean": [
        "Indian Ocean",
        "Timor Sea"
      ]
    },
    "coordinates": {
      "lat": "-10.957497686849008",
      "lng": "122.87864685058594"
    },
    "additionalInfo": {}
  },
  {
    "id": "204d2e94-6133-4ec1-a619-c73976dab17b",
    "name": "Pinnacle 1",
    "location": {
      "country": "Indonesia",
      "region": "Unauna, Tojo Una-Una",
      "ocean": [
        "Pacific Ocean",
        "Molucca Sea",
        "Gulf Of Tomini"
      ]
    },
    "coordinates": {
      "lat": "-0.15316468116318321",
      "lng": "121.67221069335939"
    },
    "additionalInfo": {}
  },
  {
    "id": "208da8bb-d99b-4c79-ba41-1b0bbb5f997e",
    "name": "Kollo-Soha Beach",
    "location": {
      "country": "Indonesia",
      "region": "Tomia, Wakatobi Regency",
      "ocean": [
        "Pacific Ocean",
        "Banda Sea"
      ]
    },
    "coordinates": {
      "lat": "-5.742167523203833",
      "lng": "123.89230728149415"
    },
    "additionalInfo": {}
  },
  {
    "id": "20b2d1cc-ba73-465b-a8e5-c6b6e353822e",
    "name": "The Fault Line",
    "location": {
      "country": "Indonesia",
      "region": "Alor Island, East Nusa Tenggara",
      "ocean": [
        "Pacific Ocean",
        "Banda Sea"
      ]
    },
    "coordinates": {
      "lat": "-8.183115770728614",
      "lng": "124.42274093627931"
    },
    "additionalInfo": {}
  },
  {
    "id": "20df1541-3d71-419c-bb3d-a980be16fac2",
    "name": "Tonggeng Sopa",
    "location": {
      "country": "Indonesia",
      "region": "Siau, North Sulawesi",
      "ocean": [
        "Pacific Ocean",
        "Celebes Sea"
      ]
    },
    "coordinates": {
      "lat": "2.697519747041441",
      "lng": "125.40352821350099"
    },
    "additionalInfo": {}
  },
  {
    "id": "20fc6c1a-da54-4dfa-b21c-9eeffdcc9720",
    "name": "Figure Eight Rock",
    "location": {
      "country": "Indonesia",
      "region": "Pulau Wajang, Waigeo Island",
      "ocean": [
        "Pacific Ocean",
        "Halmahera Sea"
      ]
    },
    "coordinates": {
      "lat": "0.17393562303857854",
      "lng": "130.00692844390872"
    },
    "additionalInfo": {}
  },
  {
    "id": "21a91113-d0bf-47a8-8fee-d902693ee9a7",
    "name": "Jetty Air",
    "location": {
      "country": "Indonesia",
      "region": "Ambon Island, Maluku",
      "ocean": [
        "Pacific Ocean",
        "Banda Sea"
      ]
    },
    "coordinates": {
      "lat": "-3.719989410956053",
      "lng": "128.09444904327395"
    },
    "additionalInfo": {}
  },
  {
    "id": "220376fd-805b-4ff5-b625-d6a2cad852f3",
    "name": "Jinn Cave",
    "location": {
      "country": "Indonesia",
      "region": "Sulawesi, Indonesia",
      "ocean": [
        "Pacific Ocean",
        "Molucca Sea",
        "Gulf Of Tomini"
      ]
    },
    "coordinates": {
      "lat": "0.4073919300718851",
      "lng": "123.14474344253541"
    },
    "additionalInfo": {}
  },
  {
    "id": "22ac060b-46ac-44ad-a768-44bc3e05a9cf",
    "name": "Black Forrest",
    "location": {
      "country": "Indonesia",
      "region": "Wakatobi Regency, Sulawesi",
      "ocean": [
        "Pacific Ocean",
        "Banda Sea"
      ]
    },
    "coordinates": {
      "lat": "-5.808828989355773",
      "lng": "123.82295608520509"
    },
    "additionalInfo": {}
  },
  {
    "id": "22b0a97e-224b-4eaa-9289-e11fea3c7eb5",
    "name": "Yanbuba Jetty",
    "location": {
      "country": "Indonesia",
      "region": "Arborek Island, Raja Ampat Islands",
      "ocean": [
        "Pacific Ocean",
        "Halmahera Sea"
      ]
    },
    "coordinates": {
      "lat": "-0.5700755053495616",
      "lng": "130.65939617052211"
    },
    "additionalInfo": {}
  },
  {
    "id": "22b3433b-c999-4df9-8229-0987d1eec7bb",
    "name": "Light House",
    "location": {
      "country": "Indonesia",
      "region": "Maratua, Derawan",
      "ocean": [
        "Pacific Ocean",
        "Celebes Sea"
      ]
    },
    "coordinates": {
      "lat": "2.31392400404315",
      "lng": "118.56878757476808"
    },
    "additionalInfo": {}
  },
  {
    "id": "22dddbf9-a7d9-4ea0-af9d-ba3d1c13d5c8",
    "name": "Cross Wreck",
    "location": {
      "country": "Indonesia",
      "region": "West Papua, Indonesia",
      "ocean": [
        "Pacific Ocean",
        "Cenderawasih Bay"
      ]
    },
    "coordinates": {
      "lat": "-1.0765967983063982",
      "lng": "134.27490234375003"
    },
    "additionalInfo": {}
  },
  {
    "id": "232f488a-8c87-4ca7-87ed-9fcb8217bfe4",
    "name": "Little Lembeh",
    "location": {
      "country": "Indonesia",
      "region": "Tanjung Pude, Sulawesi",
      "ocean": [
        "Pacific Ocean",
        "Molucca Sea",
        "Gulf Of Tomini"
      ]
    },
    "coordinates": {
      "lat": "-0.3515602939922709",
      "lng": "121.86438560485841"
    },
    "additionalInfo": {}
  },
  {
    "id": "2371a599-a852-4cfb-a26c-4c05f6f74cec",
    "name": "Moa East 1",
    "location": {
      "country": "Indonesia",
      "region": "Halmahera Island, Maluku",
      "ocean": [
        "Pacific Ocean",
        "Halmahera Sea"
      ]
    },
    "coordinates": {
      "lat": "0.09449954516840536",
      "lng": "127.9801654815674"
    },
    "additionalInfo": {}
  },
  {
    "id": "238874f0-8f2b-4e14-988e-6c78cd34fcf2",
    "name": "Pulau Dondola",
    "location": {
      "country": "Indonesia",
      "region": "Puah, Sulawesi",
      "ocean": [
        "Pacific Ocean",
        "Molucca Sea",
        "Gulf Of Tomini"
      ]
    },
    "coordinates": {
      "lat": "-0.42537298440813026",
      "lng": "122.62664794921876"
    },
    "additionalInfo": {}
  },
  {
    "id": "23f6f3e3-2433-4e01-8aed-3f0aa2bc0d68",
    "name": "Boldies Backside",
    "location": {
      "country": "Indonesia",
      "region": "Nuse, Rote",
      "ocean": [
        "Indian Ocean",
        "Timor Sea"
      ]
    },
    "coordinates": {
      "lat": "-10.773024692434351",
      "lng": "122.74483680725099"
    },
    "additionalInfo": {}
  },
  {
    "id": "2470d2b0-9507-47f9-94a4-48c5436b9c50",
    "name": "Hans Reef",
    "location": {
      "country": "Indonesia",
      "region": "Gili Air, Gili Islands",
      "ocean": [
        "Pacific Ocean",
        "Bali Sea"
      ]
    },
    "coordinates": {
      "lat": "-8.346142367435476",
      "lng": "116.09080495966576"
    },
    "additionalInfo": {}
  },
  {
    "id": "24beb56d-239d-42c8-97ba-d8d650ea18e3",
    "name": "Sabolin Kecil",
    "location": {
      "country": "Indonesia",
      "region": "Sabolan Besar, Komodo",
      "ocean": [
        "Pacific Ocean",
        "Flores Sea"
      ]
    },
    "coordinates": {
      "lat": "-8.39044085681868",
      "lng": "119.80530738830568"
    },
    "additionalInfo": {}
  },
  {
    "id": "258f9165-f280-4b9a-80f4-5d410a99651b",
    "name": "Silvertips Ground",
    "location": {
      "country": "Indonesia",
      "region": "Sulawesi, Indonesia",
      "ocean": [
        "Pacific Ocean",
        "Molucca Sea",
        "Gulf Of Tomini"
      ]
    },
    "coordinates": {
      "lat": "0.4009977028958279",
      "lng": "123.14939975738527"
    },
    "additionalInfo": {}
  },
  {
    "id": "25ad5c7b-2d6a-41de-8814-a1a2c37df73f",
    "name": "Samoy Point",
    "location": {
      "country": "Indonesia",
      "region": "Ternate Island, Maluku",
      "ocean": [
        "Pacific Ocean",
        "Molucca Sea"
      ]
    },
    "coordinates": {
      "lat": "0.7528851318368919",
      "lng": "127.33866691589357"
    },
    "additionalInfo": {}
  },
  {
    "id": "25dd66b7-5560-446a-ab16-a73f3e4a357d",
    "name": "Makawidey",
    "location": {
      "country": "Indonesia",
      "region": "Sulawesi, Indonesia",
      "ocean": [
        "Pacific Ocean",
        "Molucca Sea",
        "Lembeh Strait"
      ]
    },
    "coordinates": {
      "lat": "1.478612782411724",
      "lng": "125.23643732070924"
    },
    "additionalInfo": {}
  },
  {
    "id": "25e4217b-a1a0-44ea-a342-123616eb7dcb",
    "name": "Sagolo Point",
    "location": {
      "country": "Indonesia",
      "region": "Morotai Island, Maluku",
      "ocean": [
        "Pacific Ocean"
      ]
    },
    "coordinates": {
      "lat": "1.9805777337920127",
      "lng": "128.2863235473633"
    },
    "additionalInfo": {}
  },
  {
    "id": "25ec3ceb-4936-4064-98c6-17925f826e6a",
    "name": "Pandoga Point",
    "location": {
      "country": "Indonesia",
      "region": "Maratua, Derawan",
      "ocean": [
        "Pacific Ocean",
        "Celebes Sea"
      ]
    },
    "coordinates": {
      "lat": "2.1082124786555156",
      "lng": "118.73989105224611"
    },
    "additionalInfo": {}
  },
  {
    "id": "260b311e-a3c0-49de-950e-9d158741cf44",
    "name": "Kadidiri House Reef",
    "location": {
      "country": "Indonesia",
      "region": "Tanjung Pude, Sulawesi",
      "ocean": [
        "Pacific Ocean",
        "Molucca Sea",
        "Gulf Of Tomini"
      ]
    },
    "coordinates": {
      "lat": "-0.3519894393461939",
      "lng": "121.85357093811037"
    },
    "additionalInfo": {}
  },
  {
    "id": "262108f7-358b-4221-b85e-26c7fdb1d3fb",
    "name": "End Of The World",
    "location": {
      "country": "Indonesia",
      "region": "Tala, Komodo",
      "ocean": [
        "Pacific Ocean",
        "Savu Sea",
        "Sumba Strait"
      ]
    },
    "coordinates": {
      "lat": "-8.766289078680725",
      "lng": "119.43172931671144"
    },
    "additionalInfo": {}
  },
  {
    "id": "26440b18-bbeb-406a-8d0d-0939a18b5cc1",
    "name": "Fritu",
    "location": {
      "country": "Indonesia",
      "region": "Halmahera Island, Maluku",
      "ocean": [
        "Pacific Ocean",
        "Halmahera Sea"
      ]
    },
    "coordinates": {
      "lat": "0.45558449359449565",
      "lng": "128.1266784667969"
    },
    "additionalInfo": {}
  },
  {
    "id": "26717cc2-1b66-45ad-bcac-1de6d2659a7a",
    "name": "Paradise Point",
    "location": {
      "country": "Indonesia",
      "region": "Pura, Lesser Sundar",
      "ocean": [
        "Pacific Ocean",
        "Banda Sea"
      ]
    },
    "coordinates": {
      "lat": "-8.277576467303101",
      "lng": "124.33373451232912"
    },
    "additionalInfo": {}
  },
  {
    "id": "26902901-48ec-44f5-bf5c-8fc626289c2e",
    "name": "Gunung Waha",
    "location": {
      "country": "Indonesia",
      "region": "Tomia, Wakatobi Regency",
      "ocean": [
        "Pacific Ocean",
        "Banda Sea"
      ]
    },
    "coordinates": {
      "lat": "-5.715159131687438",
      "lng": "123.89758586883546"
    },
    "additionalInfo": {}
  },
  {
    "id": "26e1ac41-c4a0-4adc-b2ee-51b5962fb9f8",
    "name": "Sachiko&#039;s Point (Lucky Point)",
    "location": {
      "country": "Indonesia",
      "region": "Bunaken Island, Bunaken Kepulauan",
      "ocean": [
        "Pacific Ocean",
        "Celebes Sea"
      ]
    },
    "coordinates": {
      "lat": "1.629082958032645",
      "lng": "124.7721576690674"
    },
    "additionalInfo": {}
  },
  {
    "id": "2720f25b-73e9-47c3-a1d1-12a4e0a170f2",
    "name": "Weka&#039;s Wow",
    "location": {
      "country": "Indonesia",
      "region": "Kawe Island, Waigeo Island",
      "ocean": [
        "Maluku",
        "Halmahera Island"
      ]
    },
    "coordinates": {
      "lat": "0.021972655711432625",
      "lng": "130.14902114868167"
    },
    "additionalInfo": {}
  },
  {
    "id": "277e6585-cc81-4f60-9cc0-e67109f39d94",
    "name": "Numana Gate",
    "location": {
      "country": "Indonesia",
      "region": "Kambode, Wakatobi Regency",
      "ocean": [
        "Pacific Ocean",
        "Banda Sea"
      ]
    },
    "coordinates": {
      "lat": "-5.396248004986455",
      "lng": "123.55876922607423"
    },
    "additionalInfo": {}
  },
  {
    "id": "278f1ad2-c06a-49d5-8916-b5a0725e78bf",
    "name": "Small Fish Country",
    "location": {
      "country": "Indonesia",
      "region": "Maratua, Derawan",
      "ocean": [
        "Pacific Ocean",
        "Celebes Sea"
      ]
    },
    "coordinates": {
      "lat": "2.258135577950783",
      "lng": "118.63770961761476"
    },
    "additionalInfo": {}
  },
  {
    "id": "2793a6e4-5061-492e-bd1f-a6f15864453b",
    "name": "Gunung Gede",
    "location": {
      "country": "Indonesia",
      "region": "Sangiang Island, Java",
      "ocean": [
        "Pacific Ocean",
        "Java Sea",
        "Sunda Strait"
      ]
    },
    "coordinates": {
      "lat": "-5.9575584886074955",
      "lng": "105.8373498916626"
    },
    "additionalInfo": {}
  },
  {
    "id": "27b87af7-f465-4701-b9f8-1c50764c9471",
    "name": "Talaganita Point",
    "location": {
      "country": "Indonesia",
      "region": "Ternate Island, Maluku",
      "ocean": [
        "Pacific Ocean",
        "Molucca Sea"
      ]
    },
    "coordinates": {
      "lat": "0.8653121049560112",
      "lng": "127.3198699951172"
    },
    "additionalInfo": {}
  },
  {
    "id": "27f5ac18-2da5-4350-8747-7c3d4023851a",
    "name": "Molana South",
    "location": {
      "country": "Indonesia",
      "region": "Molana Island, Saparua Island",
      "ocean": [
        "Pacific Ocean",
        "Banda Sea"
      ]
    },
    "coordinates": {
      "lat": "-3.6612744952141965",
      "lng": "128.61351013183597"
    },
    "additionalInfo": {}
  },
  {
    "id": "2802fadb-40cf-4edb-be09-49108745223b",
    "name": "Pockets",
    "location": {
      "country": "Indonesia",
      "region": "Lentea, Wakatobi Regency",
      "ocean": [
        "Pacific Ocean",
        "Banda Sea"
      ]
    },
    "coordinates": {
      "lat": "-5.7947394700948305",
      "lng": "123.90140533447267"
    },
    "additionalInfo": {}
  },
  {
    "id": "285afd5f-e537-44ee-9435-3cd003ddc7f8",
    "name": "Bay Watch",
    "location": {
      "country": "Indonesia",
      "region": "Pantar Island, Lesser Sundar",
      "ocean": [
        "Pacific Ocean",
        "Banda Sea"
      ]
    },
    "coordinates": {
      "lat": "-8.353926976346923",
      "lng": "124.26034927368165"
    },
    "additionalInfo": {}
  },
  {
    "id": "285d29a9-3e08-4183-8fea-cdaac620400d",
    "name": "Swell Ride",
    "location": {
      "country": "Indonesia",
      "region": "Alor Island, East Nusa Tenggara",
      "ocean": [
        "Asia",
        "Indonesia",
        "East Nusa Tenggara",
        "Alor Island"
      ]
    },
    "coordinates": {
      "lat": "-8.309341443917631",
      "lng": "124.40231323242189"
    },
    "additionalInfo": {}
  },
  {
    "id": "28cffa9d-64d8-4f34-8bf7-834bc8cba2fe",
    "name": "Rsau",
    "location": {
      "country": "Indonesia",
      "region": "Morotai Island, Maluku",
      "ocean": [
        "Pacific Ocean"
      ]
    },
    "coordinates": {
      "lat": "2.0056251323234084",
      "lng": "128.30417633056643"
    },
    "additionalInfo": {}
  },
  {
    "id": "28da05b4-d291-42be-a256-da73fe580408",
    "name": "Depan Namalatu",
    "location": {
      "country": "Indonesia",
      "region": "Ambon Island, Maluku",
      "ocean": [
        "Pacific Ocean",
        "Banda Sea"
      ]
    },
    "coordinates": {
      "lat": "-3.7890632885377484",
      "lng": "128.10676574707034"
    },
    "additionalInfo": {}
  },
  {
    "id": "28e97323-6cf6-4695-8b66-dc2a896a32f4",
    "name": "Algae Path 2",
    "location": {
      "country": "Indonesia",
      "region": "Batanta Island, Raja Ampat Islands",
      "ocean": [
        "Pacific Ocean",
        "Halmahera Sea"
      ]
    },
    "coordinates": {
      "lat": "-0.9133714990201016",
      "lng": "130.6066703796387"
    },
    "additionalInfo": {}
  },
  {
    "id": "28f09521-213a-44ea-b3ce-8905ef7879f5",
    "name": "Serua",
    "location": {
      "country": "Indonesia",
      "region": "Serua Island, Maluku",
      "ocean": [
        "Pacific Ocean",
        "Banda Sea"
      ]
    },
    "coordinates": {
      "lat": "-6.302958502952836",
      "lng": "129.99263763427737"
    },
    "additionalInfo": {}
  },
  {
    "id": "2950a4e5-8c17-414b-a82c-3b8e355be358",
    "name": "Ransiwor",
    "location": {
      "country": "Indonesia",
      "region": "Kri Island, Mansuar Island",
      "ocean": [
        "Pacific Ocean",
        "Halmahera Sea"
      ]
    },
    "coordinates": {
      "lat": "-0.5523621072734736",
      "lng": "130.6842585808994"
    },
    "additionalInfo": {}
  },
  {
    "id": "29919c2a-7111-46f8-8fe6-afb2bd76a6eb",
    "name": "Nursery Rock",
    "location": {
      "country": "Indonesia",
      "region": "Tanjung Pude, Sulawesi",
      "ocean": [
        "Pacific Ocean",
        "Molucca Sea",
        "Gulf Of Tomini"
      ]
    },
    "coordinates": {
      "lat": "-0.3587699333016687",
      "lng": "121.83640480041505"
    },
    "additionalInfo": {}
  },
  {
    "id": "29cdd21e-1faa-4f40-9ec3-ffed19611da3",
    "name": "Column Crazy",
    "location": {
      "country": "Indonesia",
      "region": "Alor Island, East Nusa Tenggara",
      "ocean": [
        "Pacific Ocean",
        "Banda Sea"
      ]
    },
    "coordinates": {
      "lat": "-8.224402622568668",
      "lng": "124.52041625976564"
    },
    "additionalInfo": {}
  },
  {
    "id": "29d70986-0142-4b6b-a584-be662a59984a",
    "name": "Stairs To Medang",
    "location": {
      "country": "Indonesia",
      "region": "Lombok, West Nusa Tenggara",
      "ocean": [
        "Pacific Ocean",
        "Bali Sea",
        "Lombok Strait"
      ]
    },
    "coordinates": {
      "lat": "-8.72013976770081",
      "lng": "115.86546421051027"
    },
    "additionalInfo": {}
  },
  {
    "id": "29ec1b11-b0f1-4a26-98cb-4f20936ec2a4",
    "name": "Honey Comb ",
    "location": {
      "country": "Indonesia",
      "region": "Sulawesi, Indonesia",
      "ocean": [
        "Pacific Ocean",
        "Molucca Sea",
        "Gulf Of Tomini"
      ]
    },
    "coordinates": {
      "lat": "0.4233131043799093",
      "lng": "123.12978744506837"
    },
    "additionalInfo": {}
  },
  {
    "id": "2a2b2075-4179-4cd7-b96b-c6ed20947d22",
    "name": "Kusambi",
    "location": {
      "country": "Indonesia",
      "region": "Bali, Indonesia",
      "ocean": [
        "Pacific Ocean",
        "Bali Sea",
        "Lombok Strait"
      ]
    },
    "coordinates": {
      "lat": "-8.386619797302442",
      "lng": "115.71929454803468"
    },
    "additionalInfo": {}
  },
  {
    "id": "2aad4153-182e-4df2-b572-6afb5c7eb5a7",
    "name": "Batu Suya",
    "location": {
      "country": "Indonesia",
      "region": "Sulawesi, Indonesia",
      "ocean": [
        "Pacific Ocean",
        "Java Sea",
        "Makassar Strait"
      ]
    },
    "coordinates": {
      "lat": "-0.3378276323843183",
      "lng": "119.75303649902345"
    },
    "additionalInfo": {}
  },
  {
    "id": "2ab9c5a8-5f5f-42e1-9c3a-d1ae3357fbd5",
    "name": "Batee Meuduro",
    "location": {
      "country": "Indonesia",
      "region": "Weh Island, Banda Aceh",
      "ocean": [
        "Indian Ocean",
        "Andaman Sea"
      ]
    },
    "coordinates": {
      "lat": "5.771085365727911",
      "lng": "95.33884048461915"
    },
    "additionalInfo": {}
  },
  {
    "id": "2aebf801-daac-4700-a5c5-766cab6d4e7a",
    "name": "Ruku Ruku",
    "location": {
      "country": "Indonesia",
      "region": "Sulawesi, Indonesia",
      "ocean": [
        "Pacific Ocean",
        "Flores Sea",
        "Selayar Strait"
      ]
    },
    "coordinates": {
      "lat": "-5.607913694911937",
      "lng": "120.42071342468263"
    },
    "additionalInfo": {}
  },
  {
    "id": "2afe9a5d-d37c-4cb6-9683-303a1505305e",
    "name": "Molana East",
    "location": {
      "country": "Indonesia",
      "region": "Molana Island, Saparua Island",
      "ocean": [
        "Pacific Ocean",
        "Banda Sea"
      ]
    },
    "coordinates": {
      "lat": "-3.6436292868555125",
      "lng": "128.613338470459"
    },
    "additionalInfo": {}
  },
  {
    "id": "2b0fbba9-0929-4455-a520-2f5373b9c0af",
    "name": "Circus 1",
    "location": {
      "country": "Indonesia",
      "region": "Sulawesi, Indonesia",
      "ocean": [
        "Pacific Ocean",
        "Celebes Sea"
      ]
    },
    "coordinates": {
      "lat": "1.4156760557860408",
      "lng": "124.7007465362549"
    },
    "additionalInfo": {}
  },
  {
    "id": "2b2c8369-de69-466b-a573-249461b7a76c",
    "name": "Crynoid Canyon",
    "location": {
      "country": "Indonesia",
      "region": "Nuso Kode, Rinca",
      "ocean": [
        "Pacific Ocean",
        "Savu Sea",
        "Sumba Strait"
      ]
    },
    "coordinates": {
      "lat": "-8.817966956884694",
      "lng": "119.66656208038331"
    },
    "additionalInfo": {}
  },
  {
    "id": "2b34fe15-9297-4760-9b0b-5fcdd552c3f4",
    "name": "Batu Kelebit",
    "location": {
      "country": "Indonesia",
      "region": "Bali, Indonesia",
      "ocean": [
        "Pacific Ocean",
        "Bali Sea"
      ]
    },
    "coordinates": {
      "lat": "-8.262457476305102",
      "lng": "115.59741497039796"
    },
    "additionalInfo": {}
  },
  {
    "id": "2b40fce0-3c1e-43d5-82ef-7a71a57565de",
    "name": "Otdima Reef",
    "location": {
      "country": "Indonesia",
      "region": "Gam Island, Waigeo Island",
      "ocean": [
        "Pacific Ocean",
        "Halmahera Sea"
      ]
    },
    "coordinates": {
      "lat": "-0.5445016915246877",
      "lng": "130.63104629516604"
    },
    "additionalInfo": {}
  },
  {
    "id": "2b468152-ea73-46ea-87f8-ff749f498285",
    "name": "Coral Garden",
    "location": {
      "country": "Indonesia",
      "region": "Tanjung Pude, Sulawesi",
      "ocean": [
        "Pacific Ocean",
        "Molucca Sea",
        "Gulf Of Tomini"
      ]
    },
    "coordinates": {
      "lat": "-0.33817094916434076",
      "lng": "121.84601783752443"
    },
    "additionalInfo": {}
  },
  {
    "id": "2b7b9eea-7a5b-4505-8afd-5b123d4e082d",
    "name": "Ciogerong Point / Hammer Head Point",
    "location": {
      "country": "Indonesia",
      "region": "Morotai Island, Maluku",
      "ocean": [
        "Pacific Ocean"
      ]
    },
    "coordinates": {
      "lat": "2.420391858508547",
      "lng": "128.26263427734378"
    },
    "additionalInfo": {}
  },
  {
    "id": "2b83b0c5-b08c-42c6-b045-021d84f9bb8a",
    "name": "Gili Biaha",
    "location": {
      "country": "Indonesia",
      "region": "Bali, Indonesia",
      "ocean": [
        "Pacific Ocean",
        "Bali Sea",
        "Lombok Strait"
      ]
    },
    "coordinates": {
      "lat": "-8.508874976876665",
      "lng": "115.61488151550294"
    },
    "additionalInfo": {}
  },
  {
    "id": "2bbe97e6-57a7-4195-a903-6e9f77d11d88",
    "name": "Raf Point",
    "location": {
      "country": "Indonesia",
      "region": "Morotai Island, Maluku",
      "ocean": [
        "Pacific Ocean"
      ]
    },
    "coordinates": {
      "lat": "2.0471412063451693",
      "lng": "128.48785400390628"
    },
    "additionalInfo": {}
  },
  {
    "id": "2bc0fe93-0492-4a3a-863c-51e623f48251",
    "name": "Air Wall",
    "location": {
      "country": "Indonesia",
      "region": "Gili Air, Gili Islands",
      "ocean": [
        "Pacific Ocean",
        "Bali Sea"
      ]
    },
    "coordinates": {
      "lat": "-8.36224904564843",
      "lng": "116.07209086418153"
    },
    "additionalInfo": {}
  },
  {
    "id": "2bfa29c2-99b8-48a0-9673-11963d05d617",
    "name": "Inidihang",
    "location": {
      "country": "Indonesia",
      "region": "Ndihan, Komodo",
      "ocean": [
        "Pacific Ocean",
        "Flores Sea"
      ]
    },
    "coordinates": {
      "lat": "-8.651668806024222",
      "lng": "119.49601650238039"
    },
    "additionalInfo": {}
  },
  {
    "id": "2bfea778-4ed3-4932-99f6-1b46619391c1",
    "name": "Liabale",
    "location": {
      "country": "Indonesia",
      "region": "Lentea, Wakatobi Regency",
      "ocean": [
        "Pacific Ocean",
        "Banda Sea"
      ]
    },
    "coordinates": {
      "lat": "-5.801400013982682",
      "lng": "123.93912792205812"
    },
    "additionalInfo": {}
  },
  {
    "id": "2c36069b-7f9a-4702-aaa3-0b4037f32466",
    "name": "Pasi Ujung",
    "location": {
      "country": "Indonesia",
      "region": "Sulawesi, Indonesia",
      "ocean": [
        "Pacific Ocean",
        "Java Sea",
        "Makassar Strait"
      ]
    },
    "coordinates": {
      "lat": "-0.7037939461932426",
      "lng": "119.62952613830568"
    },
    "additionalInfo": {}
  },
  {
    "id": "2c73230a-fadc-42b5-a945-88ea1d990caa",
    "name": "Fukui Point",
    "location": {
      "country": "Indonesia",
      "region": "Bunaken Island, Bunaken Kepulauan",
      "ocean": [
        "Pacific Ocean",
        "Celebes Sea"
      ]
    },
    "coordinates": {
      "lat": "1.6098645634276012",
      "lng": "124.73876953125001"
    },
    "additionalInfo": {}
  },
  {
    "id": "2ce10317-813d-4718-9207-e6f65c03cb22",
    "name": "Tanjung Wayabula Point",
    "location": {
      "country": "Indonesia",
      "region": "Morotai Island, Maluku",
      "ocean": [
        "Asia",
        "Indonesia",
        "Maluku",
        "Morotai Island"
      ]
    },
    "coordinates": {
      "lat": "2.2547050124314816",
      "lng": "128.19156646728518"
    },
    "additionalInfo": {}
  },
  {
    "id": "2cff8662-432d-4bda-82f0-23d9edd17982",
    "name": "Kapota Dive",
    "location": {
      "country": "Indonesia",
      "region": "Kambode, Wakatobi Regency",
      "ocean": [
        "Pacific Ocean",
        "Banda Sea"
      ]
    },
    "coordinates": {
      "lat": "-5.348052128123205",
      "lng": "123.45800399780275"
    },
    "additionalInfo": {}
  },
  {
    "id": "2d245959-a523-4281-8efa-708c1aab1180",
    "name": "Wayame (Shipwreck)",
    "location": {
      "country": "Indonesia",
      "region": "Ambon Island, Maluku",
      "ocean": [
        "Pacific Ocean",
        "Banda Sea"
      ]
    },
    "coordinates": {
      "lat": "-3.678062817279487",
      "lng": "128.1450462341309"
    },
    "additionalInfo": {}
  },
  {
    "id": "2d765419-23ec-4b0f-8f0f-37295df1e34e",
    "name": "Red Patch Wall",
    "location": {
      "country": "Indonesia",
      "region": "Waigeo Island, Raja Ampat Islands",
      "ocean": [
        "Pacific Ocean",
        "Halmahera Sea"
      ]
    },
    "coordinates": {
      "lat": "-0.24547501806467822",
      "lng": "130.29270172119143"
    },
    "additionalInfo": {}
  },
  {
    "id": "2d84f57f-fdd6-41b5-bcda-899ee13bd0f8",
    "name": "Temple Rock",
    "location": {
      "country": "Indonesia",
      "region": "Lombok, West Nusa Tenggara",
      "ocean": [
        "Pacific Ocean",
        "Bali Sea",
        "Lombok Strait"
      ]
    },
    "coordinates": {
      "lat": "-8.565744328726145",
      "lng": "116.0533905029297"
    },
    "additionalInfo": {}
  },
  {
    "id": "2da5b410-0940-4c27-baa1-4f540cffc04a",
    "name": "Murex House Reef",
    "location": {
      "country": "Indonesia",
      "region": "Manado, North Sulawesi",
      "ocean": [
        "Pacific Ocean",
        "Celebes Sea"
      ]
    },
    "coordinates": {
      "lat": "1.4605513652556008",
      "lng": "124.77662086486818"
    },
    "additionalInfo": {}
  },
  {
    "id": "2e0373f2-dc0d-44f5-8270-7e1b9a6f166b",
    "name": "Kanawa",
    "location": {
      "country": "Indonesia",
      "region": "Komodo, West Manggarai Regency",
      "ocean": [
        "Pacific Ocean",
        "Flores Sea"
      ]
    },
    "coordinates": {
      "lat": "-8.500301400362194",
      "lng": "119.75780010223389"
    },
    "additionalInfo": {}
  },
  {
    "id": "2e322462-d255-4654-8c8a-71047f4d7ad5",
    "name": "Sunset Point",
    "location": {
      "country": "Indonesia",
      "region": "Gili Trawangan, Gili Islands",
      "ocean": [
        "Pacific Ocean",
        "Bali Sea"
      ]
    },
    "coordinates": {
      "lat": "-8.360380841469444",
      "lng": "116.02283477783205"
    },
    "additionalInfo": {}
  },
  {
    "id": "2e7629f7-efc8-479c-96d0-af23782729ff",
    "name": "Mauan",
    "location": {
      "country": "Indonesia",
      "region": "Rinca, Komodo",
      "ocean": [
        "Pacific Ocean",
        "Flores Sea"
      ]
    },
    "coordinates": {
      "lat": "-8.590356788476956",
      "lng": "119.61716651916504"
    },
    "additionalInfo": {}
  },
  {
    "id": "2e826e7c-ac5f-439c-a8f4-bda130a469fc",
    "name": "Morotai Wreck",
    "location": {
      "country": "Indonesia",
      "region": "Morotai Island, Maluku",
      "ocean": [
        "Pacific Ocean"
      ]
    },
    "coordinates": {
      "lat": "2.0210651187669897",
      "lng": "128.3412551879883"
    },
    "additionalInfo": {}
  },
  {
    "id": "2f81a9d2-7de4-4bc7-a83b-8da4dad89a9a",
    "name": "Kubu",
    "location": {
      "country": "Indonesia",
      "region": "Bali, Indonesia",
      "ocean": [
        "Pacific Ocean",
        "Bali Sea"
      ]
    },
    "coordinates": {
      "lat": "-8.242581067534282",
      "lng": "115.5785322189331"
    },
    "additionalInfo": {}
  },
  {
    "id": "2f9eb4ab-ec8f-4ae2-a722-924ff88afd9f",
    "name": "Mini Wall",
    "location": {
      "country": "Indonesia",
      "region": "Sebayur Kecil, Komodo",
      "ocean": [
        "Pacific Ocean",
        "Flores Sea"
      ]
    },
    "coordinates": {
      "lat": "-8.507771457984603",
      "lng": "119.70437049865724"
    },
    "additionalInfo": {}
  },
  {
    "id": "2fb52e51-53fc-4d0a-a65b-b035b7437239",
    "name": "Weka Surprise",
    "location": {
      "country": "Indonesia",
      "region": "West Papua, Indonesia",
      "ocean": [
        "Pacific Ocean",
        "Cenderawasih Bay"
      ]
    },
    "coordinates": {
      "lat": "-2.456065098935237",
      "lng": "134.67006683349612"
    },
    "additionalInfo": {}
  },
  {
    "id": "30b429bd-8c37-440d-86b9-f320d64b003a",
    "name": "Taket Malang",
    "location": {
      "country": "Indonesia",
      "region": "Gili Air, Gili Islands",
      "ocean": [
        "Pacific Ocean",
        "Bali Sea"
      ]
    },
    "coordinates": {
      "lat": "-8.336730301614926",
      "lng": "116.0773801803589"
    },
    "additionalInfo": {}
  },
  {
    "id": "30b943ae-2340-4953-b5f5-892d21aba636",
    "name": "Alcatraz",
    "location": {
      "country": "Indonesia",
      "region": "Pantar Island, Lesser Sundar",
      "ocean": [
        "Pacific Ocean",
        "Savu Sea"
      ]
    },
    "coordinates": {
      "lat": "-8.462864035194539",
      "lng": "124.03083801269533"
    },
    "additionalInfo": {}
  },
  {
    "id": "3104667b-2bda-47d8-bd5a-b8014ca71ab7",
    "name": "3 Rocks",
    "location": {
      "country": "Indonesia",
      "region": "Misool Island, Raja Ampat Islands",
      "ocean": [
        "Pacific Ocean",
        "Halmahera Sea"
      ]
    },
    "coordinates": {
      "lat": "-1.9325405716550617",
      "lng": "130.58589935302737"
    },
    "additionalInfo": {}
  },
  {
    "id": "311b0c47-7448-4a81-bf90-6497510e0598",
    "name": "Secret Garden",
    "location": {
      "country": "Indonesia",
      "region": "Gili Air, Gili Islands",
      "ocean": [
        "Pacific Ocean",
        "Bali Sea"
      ]
    },
    "coordinates": {
      "lat": "-8.34944742166928",
      "lng": "116.08778715133668"
    },
    "additionalInfo": {}
  },
  {
    "id": "31364ee4-0e0e-45e5-811f-60d558ecaffe",
    "name": "Talake",
    "location": {
      "country": "Indonesia",
      "region": "Ambon Island, Maluku",
      "ocean": [
        "Pacific Ocean",
        "Banda Sea"
      ]
    },
    "coordinates": {
      "lat": "-3.6994760343002473",
      "lng": "128.16341400146487"
    },
    "additionalInfo": {}
  },
  {
    "id": "3144aeb1-15b8-473d-be99-d7e3ac6129f8",
    "name": "Eel Ridge",
    "location": {
      "country": "Indonesia",
      "region": "Sangalaki, Derawan",
      "ocean": [
        "Pacific Ocean",
        "Celebes Sea"
      ]
    },
    "coordinates": {
      "lat": "2.087069391513875",
      "lng": "118.40729713439941"
    },
    "additionalInfo": {}
  },
  {
    "id": "31b893d0-1811-4771-91b0-31fd9e3b1394",
    "name": "Critter Circus",
    "location": {
      "country": "Indonesia",
      "region": "Sulawesi, Indonesia",
      "ocean": [
        "Pacific Ocean",
        "Celebes Sea"
      ]
    },
    "coordinates": {
      "lat": "1.4227978175144749",
      "lng": "124.69954490661623"
    },
    "additionalInfo": {}
  },
  {
    "id": "31cf2624-36e5-4c87-8505-c0fc15dbc06f",
    "name": "Wooden Boat Wreck",
    "location": {
      "country": "Indonesia",
      "region": "Komodo, West Manggarai Regency",
      "ocean": [
        "Pacific Ocean",
        "Savu Sea",
        "Sumba Strait"
      ]
    },
    "coordinates": {
      "lat": "-8.74433",
      "lng": "119.45766"
    },
    "additionalInfo": {}
  },
  {
    "id": "31f51234-453d-48e4-8569-1387086b45ab",
    "name": "Takat Penyu",
    "location": {
      "country": "Indonesia",
      "region": "Gili Air, Gili Islands",
      "ocean": [
        "Pacific Ocean",
        "Bali Sea"
      ]
    },
    "coordinates": {
      "lat": "-8.34475551070907",
      "lng": "116.09480381011964"
    },
    "additionalInfo": {}
  },
  {
    "id": "329787c4-a9df-4c38-9ac8-174ad52e6adc",
    "name": "Manta Avenue",
    "location": {
      "country": "Indonesia",
      "region": "Sangalaki, Derawan",
      "ocean": [
        "Pacific Ocean",
        "Celebes Sea"
      ]
    },
    "coordinates": {
      "lat": "2.0903716774833763",
      "lng": "118.40433597564699"
    },
    "additionalInfo": {}
  },
  {
    "id": "32eda8e8-608e-4360-b34f-d6027a133f49",
    "name": "Coral Hill",
    "location": {
      "country": "Indonesia",
      "region": "Wakatobi Regency, Sulawesi",
      "ocean": [
        "Pacific Ocean",
        "Banda Sea"
      ]
    },
    "coordinates": {
      "lat": "-5.771170761384021",
      "lng": "123.76879692077638"
    },
    "additionalInfo": {}
  },
  {
    "id": "32f5daad-0c51-4c2e-b64f-b588abf0f869",
    "name": "Critters Hunt",
    "location": {
      "country": "Indonesia",
      "region": "Lembeh, Sulawesi",
      "ocean": [
        "Pacific Ocean",
        "Molucca Sea",
        "Lembeh Strait"
      ]
    },
    "coordinates": {
      "lat": "1.4543735549569974",
      "lng": "125.2251720428467"
    },
    "additionalInfo": {}
  },
  {
    "id": "33b9780d-c69d-4427-aef4-c0170de99db8",
    "name": "Seri",
    "location": {
      "country": "Indonesia",
      "region": "Ambon Island, Maluku",
      "ocean": [
        "Pacific Ocean",
        "Banda Sea"
      ]
    },
    "coordinates": {
      "lat": "-3.7604580310334983",
      "lng": "128.15551757812503"
    },
    "additionalInfo": {}
  },
  {
    "id": "33f11e39-9c73-4ac2-9404-a0a2ee066057",
    "name": "Dufa-Dufa",
    "location": {
      "country": "Indonesia",
      "region": "Ternate Island, Maluku",
      "ocean": [
        "Pacific Ocean",
        "Molucca Sea"
      ]
    },
    "coordinates": {
      "lat": "0.8102146953776155",
      "lng": "127.38973617553712"
    },
    "additionalInfo": {}
  },
  {
    "id": "33f163e7-ecf1-4e95-b223-b3af01ca15ac",
    "name": "Soft Coral ",
    "location": {
      "country": "Indonesia",
      "region": "Kepulauan Seribu, Jakarta",
      "ocean": [
        "Pacific Ocean"
      ]
    },
    "coordinates": {
      "lat": "-5.747138842586495",
      "lng": "106.59031941719603"
    },
    "additionalInfo": {}
  },
  {
    "id": "33fd9b16-ad45-4913-85e8-92fcc82a0d74",
    "name": "River Mouth",
    "location": {
      "country": "Indonesia",
      "region": "Moyo, Sumbawa",
      "ocean": [
        "Pacific Ocean",
        "Java Sea"
      ]
    },
    "coordinates": {
      "lat": "-8.191271538028253",
      "lng": "117.46976852416994"
    },
    "additionalInfo": {}
  },
  {
    "id": "3402a643-d02f-4d64-b31e-bd7b590ef23c",
    "name": "Berlin Wall",
    "location": {
      "country": "Indonesia",
      "region": "Sangiang Island, Java",
      "ocean": [
        "Pacific Ocean",
        "Java Sea",
        "Sunda Strait"
      ]
    },
    "coordinates": {
      "lat": "-5.9670128158518185",
      "lng": "105.8669400215149"
    },
    "additionalInfo": {}
  },
  {
    "id": "34aaaddd-a8b0-4014-a008-9f58109cc2a6",
    "name": "Sampiri",
    "location": {
      "country": "Indonesia",
      "region": "Sulawesi, Indonesia",
      "ocean": [
        "Pacific Ocean",
        "Celebes Sea"
      ]
    },
    "coordinates": {
      "lat": "1.6820398335121707",
      "lng": "125.13822555541994"
    },
    "additionalInfo": {}
  },
  {
    "id": "3504672f-fe85-4b47-9d54-66b8396b7ecf",
    "name": "Algae Path 1",
    "location": {
      "country": "Indonesia",
      "region": "Batanta Island, Raja Ampat Islands",
      "ocean": [
        "Pacific Ocean",
        "Halmahera Sea"
      ]
    },
    "coordinates": {
      "lat": "-0.9159460915806948",
      "lng": "130.57233810424808"
    },
    "additionalInfo": {}
  },
  {
    "id": "352f8951-358a-4bd6-b47d-508d6982a55e",
    "name": "Putri Point",
    "location": {
      "country": "Indonesia",
      "region": "Ternate Island, Maluku",
      "ocean": [
        "Pacific Ocean",
        "Molucca Sea"
      ]
    },
    "coordinates": {
      "lat": "0.7751991265755049",
      "lng": "127.38716125488283"
    },
    "additionalInfo": {}
  },
  {
    "id": "353ab62e-ae38-4386-99dc-fface995e5db",
    "name": "Manta Avenue",
    "location": {
      "country": "Indonesia",
      "region": "Derawan, Kalimantan",
      "ocean": [
        "Pacific Ocean",
        "Celebes Sea"
      ]
    },
    "coordinates": {
      "lat": "1.8942814294323644",
      "lng": "118.47810745239259"
    },
    "additionalInfo": {}
  },
  {
    "id": "35530df7-2a26-420d-ab58-0f4a2e27af31",
    "name": "Tunghiang",
    "location": {
      "country": "Indonesia",
      "region": "Siau, North Sulawesi",
      "ocean": [
        "Pacific Ocean",
        "Celebes Sea"
      ]
    },
    "coordinates": {
      "lat": "2.6347596951449983",
      "lng": "125.3914260864258"
    },
    "additionalInfo": {}
  },
  {
    "id": "35767c73-3c3e-478b-96dc-2f6f7395105e",
    "name": "Wall-E",
    "location": {
      "country": "Indonesia",
      "region": "Unauna, Tojo Una-Una",
      "ocean": [
        "Pacific Ocean",
        "Molucca Sea",
        "Gulf Of Tomini"
      ]
    },
    "coordinates": {
      "lat": "-0.11947623177320972",
      "lng": "121.64955139160158"
    },
    "additionalInfo": {}
  },
  {
    "id": "357c9842-926a-4079-9ae0-04e8c8954927",
    "name": "Toomies Treasure",
    "location": {
      "country": "Indonesia",
      "region": "Ambon Island, Maluku",
      "ocean": [
        "Pacific Ocean",
        "Banda Sea"
      ]
    },
    "coordinates": {
      "lat": "-3.648768703722039",
      "lng": "128.28254699707034"
    },
    "additionalInfo": {}
  },
  {
    "id": "35c7ea72-8ed5-46ca-acff-5fc8986502e0",
    "name": "Rubiah Jetty",
    "location": {
      "country": "Indonesia",
      "region": "Weh Island, Banda Aceh",
      "ocean": [
        "Indian Ocean",
        "Andaman Sea"
      ]
    },
    "coordinates": {
      "lat": "5.879463385018846",
      "lng": "95.25794506072998"
    },
    "additionalInfo": {}
  },
  {
    "id": "36007730-44b1-4e07-8333-c1455f5287b5",
    "name": "Muka Kampung",
    "location": {
      "country": "Indonesia",
      "region": "Bunaken Island, Bunaken Kepulauan",
      "ocean": [
        "Pacific Ocean",
        "Celebes Sea"
      ]
    },
    "coordinates": {
      "lat": "1.594378180500497",
      "lng": "124.78260755538942"
    },
    "additionalInfo": {}
  },
  {
    "id": "360aa675-f463-494b-8e49-324704c9942f",
    "name": "Half Moon Bay",
    "location": {
      "country": "Indonesia",
      "region": "Buaya, Alor Island",
      "ocean": [
        "Pacific Ocean",
        "Banda Sea"
      ]
    },
    "coordinates": {
      "lat": "-8.16918261546991",
      "lng": "124.37690734863283"
    },
    "additionalInfo": {}
  },
  {
    "id": "3647b523-71aa-4098-82a4-fdfbe13e639b",
    "name": "Mioskon",
    "location": {
      "country": "Indonesia",
      "region": "Friwin Island, Raja Ampat Islands",
      "ocean": [
        "Pacific Ocean",
        "Halmahera Sea"
      ]
    },
    "coordinates": {
      "lat": "-0.4976855462390594",
      "lng": "130.72072687497646"
    },
    "additionalInfo": {}
  },
  {
    "id": "36682b67-363a-4103-999c-dafabdb149c6",
    "name": "Pasighe Reef Tip",
    "location": {
      "country": "Indonesia",
      "region": "Thulandang, Sulawesi",
      "ocean": [
        "Pacific Ocean",
        "Celebes Sea"
      ]
    },
    "coordinates": {
      "lat": "2.384717679233576",
      "lng": "125.32499313354494"
    },
    "additionalInfo": {}
  },
  {
    "id": "36947848-4338-478b-9431-023eed339811",
    "name": "White Rocks",
    "location": {
      "country": "Indonesia",
      "region": "Kamaka, Kaimana Regency",
      "ocean": [
        "Pacific Ocean",
        "Arafura Sea"
      ]
    },
    "coordinates": {
      "lat": "-3.909897133118374",
      "lng": "134.11628723144534"
    },
    "additionalInfo": {}
  },
  {
    "id": "36c18e35-c52f-4ffb-91fe-c447d64af562",
    "name": "Batu Mandi Utara",
    "location": {
      "country": "Indonesia",
      "region": "Sangiang Island, Java",
      "ocean": [
        "Pacific Ocean",
        "Java Sea",
        "Sunda Strait"
      ]
    },
    "coordinates": {
      "lat": "-5.977256598104274",
      "lng": "105.85075020790102"
    },
    "additionalInfo": {}
  },
  {
    "id": "36ebde5b-6510-4267-878e-8f26fd917250",
    "name": "Air Prang",
    "location": {
      "country": "Indonesia",
      "region": "Sulawesi, Indonesia",
      "ocean": [
        "Pacific Ocean",
        "Molucca Sea",
        "Lembeh Strait"
      ]
    },
    "coordinates": {
      "lat": "1.4687026167328905",
      "lng": "125.23622274398805"
    },
    "additionalInfo": {}
  },
  {
    "id": "37d7ef62-b15c-4016-ad1c-592413aa4efd",
    "name": "Serena Island",
    "location": {
      "country": "Indonesia",
      "region": "Sarena Island, Lembeh",
      "ocean": [
        "Lembeh"
      ]
    },
    "coordinates": {
      "lat": "1.459178519987783",
      "lng": "125.23351907730104"
    },
    "additionalInfo": {}
  },
  {
    "id": "37defa83-2882-4458-9606-7a24437dee03",
    "name": "Kataba Cliffs",
    "location": {
      "country": "Indonesia",
      "region": "Semau, Timor",
      "ocean": [
        "Pacific Ocean",
        "Savu Sea"
      ]
    },
    "coordinates": {
      "lat": "-10.223876035248875",
      "lng": "123.45113754272462"
    },
    "additionalInfo": {}
  },
  {
    "id": "37f19241-b26b-4698-aa1c-cc78d27dd1c8",
    "name": "Manta Point",
    "location": {
      "country": "Indonesia",
      "region": "Sangalaki, Derawan",
      "ocean": [
        "Pacific Ocean",
        "Celebes Sea"
      ]
    },
    "coordinates": {
      "lat": "2.086812070237804",
      "lng": "118.40133190155031"
    },
    "additionalInfo": {}
  },
  {
    "id": "37f77b0a-5d08-467f-89f9-ff1b58be96d2",
    "name": "Hainus",
    "location": {
      "country": "Indonesia",
      "region": "Sulawesi, Indonesia",
      "ocean": [
        "Pacific Ocean",
        "Molucca Sea",
        "Lembeh Strait"
      ]
    },
    "coordinates": {
      "lat": "1.5042460136539724",
      "lng": "125.24248838424684"
    },
    "additionalInfo": {}
  },
  {
    "id": "37fd6e98-6c53-47a4-a1cb-4989d1cb1a7e",
    "name": "Tana",
    "location": {
      "country": "Indonesia",
      "region": "Halmahera Island, Maluku",
      "ocean": [
        "Pacific Ocean",
        "Halmahera Sea"
      ]
    },
    "coordinates": {
      "lat": "0.47463827853322355",
      "lng": "128.07826995849612"
    },
    "additionalInfo": {}
  },
  {
    "id": "38124f39-b74c-43cc-a3c9-3454ac056865",
    "name": "Batee Gla",
    "location": {
      "country": "Indonesia",
      "region": "Weh Island, Banda Aceh",
      "ocean": [
        "Indian Ocean",
        "Andaman Sea"
      ]
    },
    "coordinates": {
      "lat": "5.906421208435651",
      "lng": "95.22339820861816"
    },
    "additionalInfo": {}
  },
  {
    "id": "38608c97-ba7d-4078-9bed-076a0bb4550a",
    "name": "Kandang Ikan",
    "location": {
      "country": "Indonesia",
      "region": "Ambon Island, Maluku",
      "ocean": [
        "Pacific Ocean",
        "Banda Sea"
      ]
    },
    "coordinates": {
      "lat": "-3.5473454964242888",
      "lng": "128.1919097900391"
    },
    "additionalInfo": {}
  },
  {
    "id": "38900d4c-259f-44d8-b6b1-cfce2c2238ae",
    "name": "Tanjung Putih",
    "location": {
      "country": "Indonesia",
      "region": "Sulawesi, Indonesia",
      "ocean": [
        "Pacific Ocean",
        "Molucca Sea",
        "Gulf Of Tomini"
      ]
    },
    "coordinates": {
      "lat": "0.4809895286187352",
      "lng": "122.99353122711183"
    },
    "additionalInfo": {}
  },
  {
    "id": "38dde180-d996-4a28-8b10-8435ed9e7b7c",
    "name": "W-Reef",
    "location": {
      "country": "Indonesia",
      "region": "Rinca, Komodo",
      "ocean": [
        "Pacific Ocean",
        "Flores Sea"
      ]
    },
    "coordinates": {
      "lat": "-8.71958831677021",
      "lng": "119.59321975708009"
    },
    "additionalInfo": {}
  },
  {
    "id": "38f5a64f-c56b-4e95-81be-40ae32ddb60b",
    "name": "Cave City",
    "location": {
      "country": "Indonesia",
      "region": "Semau, Timor",
      "ocean": [
        "Pacific Ocean",
        "Savu Sea"
      ]
    },
    "coordinates": {
      "lat": "-10.199210467610602",
      "lng": "123.46727371215822"
    },
    "additionalInfo": {}
  },
  {
    "id": "393376b7-3f11-40f0-9aad-c644452338af",
    "name": "Fusilier Alley",
    "location": {
      "country": "Indonesia",
      "region": "Maratua, Derawan",
      "ocean": [
        "Pacific Ocean",
        "Celebes Sea"
      ]
    },
    "coordinates": {
      "lat": "2.19106656864283",
      "lng": "118.68255615234376"
    },
    "additionalInfo": {}
  },
  {
    "id": "3970152c-96e0-4f50-b1f3-810b9be1fdc2",
    "name": "Ayuki&#039;s Point",
    "location": {
      "country": "Indonesia",
      "region": "Siau, North Sulawesi",
      "ocean": [
        "Pacific Ocean",
        "Celebes Sea"
      ]
    },
    "coordinates": {
      "lat": "2.665111267456704",
      "lng": "125.41872024536134"
    },
    "additionalInfo": {}
  },
  {
    "id": "3a2dea98-9b92-4af1-b0f8-119d3fbe776b",
    "name": "Down Town",
    "location": {
      "country": "Indonesia",
      "region": "Helehanak, Rote",
      "ocean": [
        "Indian Ocean",
        "Timor Sea"
      ]
    },
    "coordinates": {
      "lat": "-10.955496365846809",
      "lng": "122.8838610649109"
    },
    "additionalInfo": {}
  },