[
  {
    "id": "01964577-2882-452e-8406-ec77d62466c0",
    "name": "Deep",
    "location": {
      "country": "Dominica",
      "region": "Atlantic Ocean",
      "ocean": [
        "Atlantic Ocean",
        "Caribbean Sea"
      ]
    },
    "coordinates": {
      "lat": "19.758706791885842",
      "lng": "-70.54806232452394"
    },
    "additionalInfo": {}
  },
  {
    "id": "0517718d-2bf9-42a6-963a-c90595d78e0a",
    "name": "Las Sombrillas",
    "location": {
      "country": "Dominica",
      "region": "Atlantic Ocean",
      "ocean": [
        "Atlantic Ocean",
        "Caribbean Sea"
      ]
    },
    "coordinates": {
      "lat": "18.424692625468268",
      "lng": "-69.40663218498231"
    },
    "additionalInfo": {}
  },
  {
    "id": "0bb817c3-7f3c-434d-903a-74aba097ba4b",
    "name": "Bottom Up Wreck",
    "location": {
      "country": "Dominica",
      "region": "Atlantic Ocean",
      "ocean": [
        "Atlantic Ocean",
        "Caribbean Sea"
      ]
    },
    "coordinates": {
      "lat": "18.702838242808514",
      "lng": "-68.4001922607422"
    },
    "additionalInfo": {}
  },
  {
    "id": "140754da-200a-4181-b06f-047f6c666ec3",
    "name": "Manolo",
    "location": {
      "country": "Dominica",
      "region": "Atlantic Ocean",
      "ocean": [
        "Atlantic Ocean",
        "Caribbean Sea"
      ]
    },
    "coordinates": {
      "lat": "18.70478939188912",
      "lng": "-68.42079162597658"
    },
    "additionalInfo": {}
  },
  {
    "id": "16b00ee7-9911-4526-96e3-6e251bbd8970",
    "name": "Airport Wall",
    "location": {
      "country": "Dominica",
      "region": "Atlantic Ocean",
      "ocean": [
        "Atlantic Ocean",
        "Caribbean Sea"
      ]
    },
    "coordinates": {
      "lat": "19.763149485743256",
      "lng": "-70.55243968963624"
    },
    "additionalInfo": {}
  },
  {
    "id": "1859d3dd-c6a2-42dd-a01a-260814b50dc5",
    "name": "Rondana",
    "location": {
      "country": "Dominica",
      "region": "Atlantic Ocean",
      "ocean": [
        "Atlantic Ocean",
        "Caribbean Sea"
      ]
    },
    "coordinates": {
      "lat": "18.715195140335716",
      "lng": "-68.43177795410158"
    },
    "additionalInfo": {}
  },
  {
    "id": "1ede4efb-27cc-4d7e-98c1-3bcdc4b4b6f2",
    "name": "La Roca",
    "location": {
      "country": "Dominica",
      "region": "Atlantic Ocean",
      "ocean": [
        "Atlantic Ocean",
        "Caribbean Sea"
      ]
    },
    "coordinates": {
      "lat": "18.368210965312237",
      "lng": "-68.8945770263672"
    },
    "additionalInfo": {}
  },
  {
    "id": "2195b8dd-1833-4fdc-8a7a-999bef150e2b",
    "name": "Dreams Shallow",
    "location": {
      "country": "Dominica",
      "region": "Atlantic Ocean",
      "ocean": [
        "Atlantic Ocean",
        "Caribbean Sea"
      ]
    },
    "coordinates": {
      "lat": "18.392646544353834",
      "lng": "-68.93835067749025"
    },
    "additionalInfo": {}
  },
  {
    "id": "233f7b67-4914-4416-91e1-f6d0c24245fc",
    "name": "Gypsy Wreck",
    "location": {
      "country": "Dominica",
      "region": "Atlantic Ocean",
      "ocean": [
        "Atlantic Ocean",
        "Caribbean Sea"
      ]
    },
    "coordinates": {
      "lat": "18.36984011162749",
      "lng": "-68.90745162963869"
    },
    "additionalInfo": {}
  },
  {
    "id": "29263c7f-c006-4dc8-96d0-a76106cbea3e",
    "name": "Ruben",
    "location": {
      "country": "Dominica",
      "region": "Atlantic Ocean",
      "ocean": [
        "Atlantic Ocean",
        "Caribbean Sea"
      ]
    },
    "coordinates": {
      "lat": "18.174559256236897",
      "lng": "-68.80514144897462"
    },
    "additionalInfo": {}
  },
  {
    "id": "2d902e03-737b-455e-8e5e-ed6096b6d46b",
    "name": "Costa Linda",
    "location": {
      "country": "Dominica",
      "region": "Atlantic Ocean",
      "ocean": [
        "Atlantic Ocean",
        "Caribbean Sea"
      ]
    },
    "coordinates": {
      "lat": "18.42385795571491",
      "lng": "-69.41550493240358"
    },
    "additionalInfo": {}
  },
  {
    "id": "3442ea7d-e87d-4dcc-8ee8-96d84c372cad",
    "name": "Astron Wreck",
    "location": {
      "country": "Dominica",
      "region": "Atlantic Ocean",
      "ocean": [
        "Atlantic Ocean",
        "Caribbean Sea"
      ]
    },
    "coordinates": {
      "lat": "18.738930857457998",
      "lng": "-68.46267700195314"
    },
    "additionalInfo": {}
  },
  {
    "id": "4fe9c42b-2fc6-43fb-9e65-95445ca31840",
    "name": "Channel",
    "location": {
      "country": "Dominica",
      "region": "Atlantic Ocean",
      "ocean": [
        "Atlantic Ocean",
        "Caribbean Sea"
      ]
    },
    "coordinates": {
      "lat": "18.679747937913884",
      "lng": "-68.38851928710939"
    },
    "additionalInfo": {}
  },
  {
    "id": "5677cb8b-ac92-4124-b801-53ae69524c4e",
    "name": "Coral Garden",
    "location": {
      "country": "Dominica",
      "region": "Atlantic Ocean",
      "ocean": [
        "Atlantic Ocean",
        "Caribbean Sea"
      ]
    },
    "coordinates": {
      "lat": "18.728201425586516",
      "lng": "-68.44688415527345"
    },
    "additionalInfo": {}
  },
  {
    "id": "7af8ba57-5e73-444c-889b-4df0fab024bc",
    "name": "La Playita",
    "location": {
      "country": "Dominica",
      "region": "Atlantic Ocean",
      "ocean": [
        "Atlantic Ocean",
        "Caribbean Sea"
      ]
    },
    "coordinates": {
      "lat": "18.40013942793085",
      "lng": "-68.95946502685548"
    },
    "additionalInfo": {}
  },
  {
    "id": "7f6c8aaa-8a19-4e7a-9e4e-6f9ef9f2ee80",
    "name": "Mandinga Reef",
    "location": {
      "country": "Dominica",
      "region": "Atlantic Ocean",
      "ocean": [
        "Atlantic Ocean",
        "Caribbean Sea"
      ]
    },
    "coordinates": {
      "lat": "18.423074176771163",
      "lng": "-69.41415309906007"
    },
    "additionalInfo": {}
  },
  {
    "id": "8fc6a5d1-58e1-4992-8fcf-c1b2e1e89cdc",
    "name": "Tunnel Reef",
    "location": {
      "country": "Dominica",
      "region": "Atlantic Ocean",
      "ocean": [
        "Atlantic Ocean",
        "Caribbean Sea"
      ]
    },
    "coordinates": {
      "lat": "18.424794414185467",
      "lng": "-69.40486192703248"
    },
    "additionalInfo": {}
  },
  {
    "id": "a90bcdb9-29f5-4493-a8ab-baeae9efa905",
    "name": "Shallow",
    "location": {
      "country": "Dominica",
      "region": "Atlantic Ocean",
      "ocean": [
        "Atlantic Ocean",
        "Caribbean Sea"
      ]
    },
    "coordinates": {
      "lat": "18.688529129026673",
      "lng": "-68.4108352661133"
    },
    "additionalInfo": {}
  },
  {
    "id": "b88d507d-e3ba-4264-8e1b-794820414575",
    "name": "Montana Azul",
    "location": {
      "country": "Dominica",
      "region": "Atlantic Ocean",
      "ocean": [
        "Atlantic Ocean",
        "Caribbean Sea"
      ]
    },
    "coordinates": {
      "lat": "18.42295202908165",
      "lng": "-69.41551566123964"
    },
    "additionalInfo": {}
  },
  {
    "id": "bc7fd2d0-8a68-446f-aefd-3b58354868f0",
    "name": "Batato",
    "location": {
      "country": "Dominica",
      "region": "Atlantic Ocean",
      "ocean": [
        "Atlantic Ocean",
        "Caribbean Sea"
      ]
    },
    "coordinates": {
      "lat": "18.722999031560423",
      "lng": "-68.4218215942383"
    },
    "additionalInfo": {}
  },
  {
    "id": "bdc69e2e-7420-4f62-bbd5-e03c8b73c8ca",
    "name": "Park Reef",
    "location": {
      "country": "Dominica",
      "region": "Atlantic Ocean",
      "ocean": [
        "Atlantic Ocean",
        "Caribbean Sea"
      ]
    },
    "coordinates": {
      "lat": "18.694383003553046",
      "lng": "-68.37512969970705"
    },
    "additionalInfo": {}
  },
  {
    "id": "c2277140-24d8-441c-a4e2-7258797e9c30",
    "name": "Tortuga Reef",
    "location": {
      "country": "Dominica",
      "region": "Atlantic Ocean",
      "ocean": [
        "Atlantic Ocean",
        "Caribbean Sea"
      ]
    },
    "coordinates": {
      "lat": "18.42476387757664",
      "lng": "-69.40578460693361"
    },
    "additionalInfo": {}
  },
  {
    "id": "c3e573fc-cb30-4bb3-8dca-5e068b0fb0c7",
    "name": "El Tunel",
    "location": {
      "country": "Dominica",
      "region": "Atlantic Ocean",
      "ocean": [
        "Atlantic Ocean",
        "Caribbean Sea"
      ]
    },
    "coordinates": {
      "lat": "18.722999031560423",
      "lng": "-68.44001770019533"
    },
    "additionalInfo": {}
  },
  {
    "id": "de6552ef-ac6c-4407-83c9-76d488939f33",
    "name": "El Penon",
    "location": {
      "country": "Dominica",
      "region": "Atlantic Ocean",
      "ocean": [
        "Atlantic Ocean",
        "Caribbean Sea"
      ]
    },
    "coordinates": {
      "lat": "18.25021997706561",
      "lng": "-68.80720138549806"
    },
    "additionalInfo": {}
  },
  {
    "id": "ee227b6e-3427-4fe6-aa4e-d6912e0f6cdf",
    "name": "Viva Reef",
    "location": {
      "country": "Dominica",
      "region": "Atlantic Ocean",
      "ocean": [
        "Atlantic Ocean",
        "Caribbean Sea"
      ]
    },
    "coordinates": {
      "lat": "18.300525595569038",
      "lng": "-68.83071899414064"
    },
    "additionalInfo": {}
  },
  {
    "id": "f84fbd37-d3f8-43a1-ab0e-8f7bd004c957",
    "name": "Paradisus",
    "location": {
      "country": "Dominica",
      "region": "Atlantic Ocean",
      "ocean": [
        "Atlantic Ocean",
        "Caribbean Sea"
      ]
    },
    "coordinates": {
      "lat": "18.71942229279161",
      "lng": "-68.40774536132814"
    },
    "additionalInfo": {}
  }
]